OrganisationID,OrganisationCode,OrganisationType,OrganisationStatus,IsPimsManaged,isEPSEnabled,OrganisationName,Address1,Address2,Address3,City,County,Postcode,Latitude,Longitude,Phone,Email,Website,Fax
2915,Y02622,GP,Visible,True,True,Blackfriars,138 Chapel Street,,Salford,,England - Uk,M3 6AF,53.4839401245,-2.254740715,0161 819 4790,,,0161 819 4791
3028,A81001,GP,Visible,True,True,The Densham Surgery,Health Centre,Lawson Street,Stockton On Tees,Cleveland,,TS18 1HU,54.5616912842,-1.3189228773,01642 606490,,,01642 618112
3029,A81002,GP,Visible,True,True,Queens Park Medical Centre,Farrer Street,Stockton On Tees,Cleveland,,,TS18 2AW,54.5690231323,-1.3139131069,01642 679681,,http://www.qpmc.org.uk,01642 677124
3030,A81003,GP,Visible,True,True,Victoria Medical Practice ,Health Centre,Victoria Road,Hartlepool,Cleveland,,TS26 8DB,54.6851425171,-1.2176008224,01429 272945,,http://www.victoriamedicalpractice.com,01429 867797
3031,A81004,GP,Visible,True,True,Woodlands Surgery,6 Woodlands Road,,Middlesbrough,,,TS1 3BE,54.5716133118,-1.2322590351,01642 247982,,,01642 241636
3032,A81004,GP,Visible,True,True,Acklam Road Surgery,283 Acklam Road,Middlesbrough,Cleveland,,,TS5 7BP,54.5453796387,-1.2578558922,01642 818952,,,
3033,A81005,GP,Visible,True,True,Springwood Surgery,Rectory Lane,Guisborough,Cleveland,,,TS14 7DJ,54.5326080322,-1.0554127693,01287 619611,rc-pct.springwood@nhs.net,http://www.springwoodsurgery.co.uk/,01287 619613
3034,A81006,GP,Visible,True,True,Tennant Street Medical Centre,The Surgery,Tennant Street,Stockton-on-Tees,,,TS18 2AT,54.5685958862,-1.3135490417,01642 613331,,,01642 675612
3035,A81007,GP,Visible,True,True,Bankhouse Surgery,One Life Hartlepool,Park Road,Hartlepool,Cleveland,,TS24 7PW,54.6823348999,-1.2141339779,01429 274800,,www.bankhousesurgery.co.uk,01429 860811
3036,A81008,GP,Visible,True,True,Albert House Clinic,Normanby Road,Normanby,Middlesbrough,,,TS6 6TD,54.5712585449,-1.1675775051,01642 466 776,,,01642 464 343
3037,A81009,GP,Visible,True,True,Dr Waters & Partners,400-404 Linthorpe Road,,Middlesbrough,Cleveland,Cleveland,TS5 6HF,54.5623016357,-1.2417128086,0844 387 8350,,,01642 820 821
3038,A81011,GP,Visible,True,True,Chadwick Practice,One Life Hartlepool,Park Road,Hartlepool,Cleveland,,TS24 7PW,54.6823348999,-1.2141339779,01429 234646,,www.chadwickpractice.co.uk,01429 861559
3039,A81012,GP,Visible,True,True,Westbourne Medical Centre,North Ormesby Health Village,7 Trinity Mews,North Ormesby,Middlesbrough,,TS3 6AL,54.5717163086,-1.2162163258,01642 277000,,,01642 281000
3040,A81013,GP,Visible,True,True,Lingdale Clinic,Lingdale Clinic,High Street,Lingdale,,,TS12 3EX,54.5397148132,-0.9671927094,01287 650406,,www.brottonsurgey.co.uk,
3041,A81013,GP,Visible,True,True,Brotton Surgery,East Cleveland Hospital,Alford Road,Brotton,Saltburn-By-The-Sea,,TS12 2FF,54.5652694702,-0.9363413453,01287 676215,,www.brottonsurgey.co.uk,01287 678121
3042,A81014,GP,Visible,True,True,Queenstree Practice,Queensway,Billingham,Cleveland,,,TS23 2LA,54.608291626,-1.294782877,01642 553 389,queenstree.practice@nhs.net,,01642 365 872
3043,A81015,GP,Visible,True,True,Lagan Surgery,20 Kirkleatham Street,Redcar,Cleveland,,,TS10 1TZ,54.6162834167,-1.0736073256,01642 488 128,stccg.a81015@nhs.net,http://www.lagansurgery.com/,01642 759 960
3044,A81016,GP,Visible,True,True,Park Surgery,Park Surgery,One Life,Linthorpe Road,Middlesbrough,,TS1 3QY,54.5662345886,-1.2402168512,0300 111 2300,,http://www.parksurgery.co.uk,01642 245748
3045,A81017,GP,Visible,True,True,Woodbridge Practice,The Health Centre,Trenchard Avenue,Thornaby,Stockton-on-Tees,Cleveland,TS17 0EE,54.5380783081,-1.2921296358,01642 760185,,,01642 766464
3046,A81017,GP,Visible,True,True,Woodbridge Practice,30 Myton Road,Ingleby Barwick,Stockton On Tees,Cleveland,,TS17 0WG,54.5180091858,-1.3185991049,01642 352 541,,,
3047,A81018,GP,Visible,True,False,Bentley Medical Practice,Redcar Primary Care Hospital,West Dyke Road,Redcar,Cleveland,,TS10 4NW,54.6008148193,-1.0695776939,01642 482 647,stccg.bentleymedical@nhs.net,http://www.bentleymedicalpractice.co.uk,01642 498 885
3048,A81019,GP,Visible,True,False,Crossfell Health Centre,Crossfell Road,Middlesbrough,Cleveland,,,TS3 7RL,54.560962677,-1.2043758631,01642 296777,,,06142 296851
3049,A81020,GP,Visible,True,True,Martonside Medical Centre,1a Martonside Way,Middlesbrough,Cleveland,,,TS4 3BU,54.5531768799,-1.2203134298,01642 812266,,,01642 811299
3050,A81021,GP,Visible,True,True,Dr Lone & Partners,Normanby Medical Centre,Low Grange Health Village,Normanby Road,Middlesbrough,,TS6 6TD,54.5712585449,-1.1675775051,01642 511660,,,01642 466723
3051,A81022,GP,Visible,True,True,Lingdale Surgery,The Clinic,The High Street,Lingdale,,,TS12 3EX,54.5397148132,-0.9671927094,01287 650406,,,
3052,A81022,GP,Visible,True,True,Hillside Practice,Windermere Drive,Skelton-In-Cleveland,Saltburn-By-The-Sea,Cleveland,,TS12 2TG,54.5631256104,-0.9807521105,01287 650430,,http://www.hillsidepractice.co.uk,01287 651547
3053,A81023,GP,Visible,True,True,Dr Foster & Partners,20 Cleveland Square,Cleveland Centre,Middlesbrough,Cleveland,,TS1 2NX,54.5753707886,-1.2364889383,01642 242 192,,,01642 231 809
3054,A81025,GP,Visible,True,True,The Dovecot Surgery,Health Centre,Lawson Street,Stockton On Tees,Cleveland,,TS18 1HU,54.5616912842,-1.3189228773,01642 676520,simon.neil@nhs.net,,01642 260897
3055,A81026,GP,Visible,True,True,The Linthorpe Surgery,Linthorpe Surgery,378 Linthorpe Road,,Middlesbrough,,TS5 6HA,54.5633430481,-1.2415697575,01642 856066,,,01642 856061
3056,A81027,GP,Visible,True,True,Yarm Medical Centre,Yarm Medical Centre,Worsall Road,Yarm,Stockton-on-Tees,,TS15 9DD,54.5050773621,-1.3558005095,01642 745800,,www.yarmmedicalpractice.nhs.uk,01642 745802
3057,A81029,GP,Visible,True,True,Dr Heywood & Partners,20 Cleveland Square,Cleveland Centre,Middlesbrough,Cleveland,,TS1 2NX,54.5753707886,-1.2364889383,01642 210220,,,01642 223893
3058,A81030,GP,Visible,True,True,Dr Lakeman & Partners,87 Guisborough Road,Nunthorpe,Middlesbrough,,,TS7 0JS,54.5286407471,-1.1685991287,01642 315 390,,,
3059,A81030,GP,Visible,True,True,Dr Lakeman & Partners,167a Borough Road,Middlesbrough,Cleveland,,,TS1 3RY,54.5719070435,-1.226220727,01642 243 668,,,01642 222 252
3061,A81032,GP,Visible,True,True,The Garth Surgery,Rectory Lane,,,Guisborough,North Yorkshire,TS14 7DJ,54.5326080322,-1.0554127693,01287 632206,,http://www.thegarthsurgery.nhs.uk,01287 635112
3062,A81033,GP,Visible,True,True,Oakfield Surgery,North Ormesby Health Village,1 Trinity Mews,North Ormesby,Middlesbrough,Cleveland,TS3 6AL,54.5717163086,-1.2162163258,01642 244990,,,01642 248714
3063,A81034,GP,Visible,True,True,TBMG Thornaby Medical Centre,Thornaby Medical Centre,Trenchard Avenue,Thornaby,Stockton-on-Tees,Cleveland,TS17 0EE,54.5380783081,-1.2921296358,01642 762921,,www.tbmg.nhs.uk,01642 760608
3064,A81034,GP,Visible,True,True,TBMG Barwick Medical Centre,Lowfields Avenue,Ingleby Barwick,Stockton-on-Tees,Cleveland,,TS17 0RJ,54.5236663818,-1.307767272,01642 766505,,www.tbmg.nhs.uk,01642 769516
3065,A81035,GP,Visible,True,True,Newlands Medical Centre,Borough Road,Middlesbrough,Cleveland,,,TS1 3RX,54.5719070435,-1.226220727,01642 247029,http.//www.shpal.mcmail.com,,01642 223803
3066,A81036,GP,Visible,True,True,Norton Medical Centre,,Billingham Road,Norton,Stockton On Tees,,TS20 2UZ,54.5887374878,-1.3087383509,01642 745350,,http://www.nortonmedicalcentre.nhs.uk,01642 745 351
3067,A81037,GP,Visible,True,True,The Erimus Practice,The Erimus Practice,The Cleveland Health Centre,Middlesbrough,,,TS1 2NX,54.5753707886,-1.2364889383,01642 242746,,www.erimuspractice.nhs.uk,01642 734972
3068,A81038,GP,Visible,True,True,Hirsel Medical Centre,North Ormesby Health Village,5 Trinity Mews,North Ormesby,Middlesbrough,,TS3 6AL,54.5717163086,-1.2162163258,01642 242880,,,01642 251494
3069,A81039,GP,Visible,True,True,The Eaglescliffe Medical Practice,Sunningdale Drive,Eaglescliffe,Stockton On Tees,Cleveland,,TS16 9EA,54.5200691223,-1.34808743,01642 780 113,,http://www.eaglescliffemedical.co.uk/,01642 791 020
3070,A81040,GP,Visible,True,True,Marsh House Medical Centre,Abbey Health Centre,Finchale Avenue,Billingham,Cleveland,,TS23 2DG,54.6117286682,-1.2921997309,01642 561 282,,,01642 565 982
3071,A81041,GP,Visible,True,True,Hart Medical Practice,The General Medical Centre,Surgery Lane,Hartlepool,,,TS24 9DN,54.704158783,-1.2234890461,01429 282700,,,01429 282166
3072,A81042,GP,Visible,True,True,South Grange Medical Centre,Trunk Road,Eston,Middlesbrough,Cleveland,,TS6 9QG,54.5700035095,-1.1665668488,01642 467001,karen.brain@nhs.net,,01642 463334
3073,A81043,GP,Visible,True,True,The Manor House Surgery,The Manor House Surgery,Braidwood Road,Normanby,Middlesbrough,,TS6 0HA,54.5573959351,-1.1592314243,01642 374788,,,01642 374789
3074,A81044,GP,Visible,True,True,McKenzie House,Mckenzie House,17 Kendal Road,Hartlepool,Hartlepool,Cleveland,TS25 1QU,54.6733970642,-1.2105227709,01429 230000,hlp-pct.a81044@nhs.net,http://www.mckenziegrouppractice.co.uk,01429 297713
3075,A81044,GP,Visible,True,True,Throston Medical Centre,82 Wiltshire Way,Hartlepool,Cleveland,,,TS26 0XT,54.6943321228,-1.244109869,01429 282200,,www.mckenziegrouppractice.co.uk,
3076,A81045,GP,Visible,True,True,The Coatham Surgery,Coatham Health Village,Coatham Road,Redcar,Cleveland,,TS10 1SR,54.6174430847,-1.0724195242,01642 483495,,http://www.coathamsurgery.co.uk/,01642 759959
3077,A81046,GP,Visible,True,True,Woodlands Family Medical Centre,106 Yarm Lane,Stockton On Tees,Cleveland,,,TS18 1YE,54.5613975525,-1.3211700916,01642 607 398,woodlands.fmc@nhs.net,http://www.woodlandsmedical.co.uk,01642 604 603
3078,A81047,GP,Visible,True,False,Marske Medical Centre,Hall Close,Marske-By-The-Sea,Redcar,Cleveland,,TS11 6BW,54.5928192139,-1.0210551023,01642 482725,,,01642 483334
3079,A81048,GP,Visible,True,False,Zetland Medical Practice - Saltburn-By-The-Sea,2 Windsor Road,Saltburn-By-The-Sea,,Cleveland,,TS12 1BH,54.5824737549,-0.9742504358,01287 622393,les.boyd@nhs.net,http://www.zetlandmedicalpractice.co.uk/,01642 475150
3080,A81048,GP,Visible,True,False,Zetland Medical Practice - Marske-By-The-Sea,Windy Hill Lane,Marske-by-the-Sea,Redcar,Cleveland,,TS11 7BL,54.5917015076,-1.0163770914,01642 477133,les.boyd@nhs.net,http://www.zetlandmedicalpractice.co.uk/,01642 475150
3081,A81049,GP,Visible,True,True,Kings Road Medical Centre,North Ormesby Health Village,3 Trinity Mews,North Ormesby,Middlesbrough,Cleveland,TS3 6AL,54.5717163086,-1.2162163258,01642 244 766,,,01642 246 243
3082,A81051,GP,Visible,True,True,Dr Herbert & Partners,10a Cambridge Road,Linthorpe,Middlesbrough,,,TS5 5NN,54.5541496277,-1.2522696257,01642 851 177,,,01642 851 176
3083,A81052,GP,Visible,True,True,The Green House Surgery (Redcar Primary Care Hospital),Redcar Primary Care Hospital,West Dyke Road,,Redcar,,TS10 4NW,54.6008148193,-1.0695776939,01642 475157,rc-pct.greenhouse-surgery@nhs.net,http://www.thegreenhousesurgery.co.uk,01642 470885
3084,A81053,GP,Visible,True,True,Woodside Surgery,Woodside Surgery,High Street,Loftus,Saltburn-By-The-Sea,,TS13 4HW,54.5539093018,-0.8867716193,01287 640385,,,01287 644071
3085,A81053,GP,Visible,True,True,Woodside Surgery at Carlin How Clinic,"The Clinic, Brotton Road",Carlin How,Saltburn-By-The-Sea,,,TS13 4DY,54.564617157,-0.9106690884,01287 640662,alison.king@nhs.net,,
3086,A81054,GP,Visible,True,True,The Saltscar Surgery,22 Kirkleatham Street,Redcar,Cleveland,,,TS10 1UA,54.6162834167,-1.0736073256,01642 484495,,,01642 488701
3087,A81056,GP,Visible,True,True,Melrose Surgery,38 Melrose Avenue,,Billingham,Cleveland,,TS23 2JW,54.6093978882,-1.2872856855,01642 553 055,,,01642 365 906
3088,A81057,GP,Visible,True,True,Kingsway Medical Centre,Kingsway,Billingham,Cleveland,,,TS23 2LS,54.6064605713,-1.2887457609,01642 554 967,,http://www.surgeriesonline.com/kingswaymc,01642 533 011
3089,A81058,GP,Visible,True,True,Coulby Medical Practice,Cropton Way,Coulby Newham,Middlesbrough,Cleveland,,TS8 0TL,54.5248069763,-1.2137465477,01642 746800,,,01642 746802
3090,A81060,GP,Visible,True,True,Dr Koh & Partner,Health Centre,Victoria Road,Hartlepool,Cleveland,,TS26 8DB,54.6851425171,-1.2176008224,01429 273191,,,01429 864006
3091,A81063,GP,Visible,True,True,The Headland Medical Centre,2 Groves Street,Hartlepool,Cleveland,,,TS24 0NZ,54.6966438293,-1.1830894947,01429 222170,,,01429 222140
3092,A81064,GP,Visible,True,True,Dr McIlhinney & Partners,20 Cleveland Square,Cleveland Centre,Middlesbrough,Cleveland,,TS1 2NX,54.5753707886,-1.2364889383,01642 245 069,,,01642 230 388
3093,A81065,GP,Visible,True,True,The Eston Surgery - Low Grange Health Village,Low Grange Health Village,Normanby Road,Middlesbrough,Cleveland,Cleveland,TS6 6TD,54.5711212158,-1.1673439741,01642 511567,stccg.estonsurgery@nhs.net,http://www.estonsurgery.co.uk/,01642 511667
3094,A81066,GP,Visible,True,False,Park Lane Surgery,Redmarshall Street,Stillington,Stockton On Tees,Cleveland,,TS21 1JS,54.6046142578,-1.4251164198,01740 631001,clinicalpost.a81066@nhs.net (repeat prescriptions),,01740 631201
3095,A81067,GP,Visible,True,False,Alma Street Medical Centre,Nolan Place,Stockton-on-Tees,Cleveland,,,TS18 2BP,54.5695915222,-1.3176312447,01642 607248,,,01642 612968
3096,A81031,GP,Visible,True,True,BRIERTON MEDICAL CENTRE HARTLEPOOL,Earlsferry Road,Hartlepool,Cleveland,,,TS25 4AZ,54.6659889221,-1.244155407,01429 272000,,www.havelockgrangepractice.co.uk,01429 277757
3097,A81031,GP,Visible,True,True,HAVELOCK GRANGE PRACTICE,One Life Hartlepool,Park Road,Hartlepool,Cleveland,,TS24 7PW,54.6823348999,-1.2141339779,01429 272000,,www.havelockgrangepractice.co.uk,01429 861265
3099,A81069,GP,Visible,True,False,Rainbow Surgery,Redcar Primary Care Hospital,West Dyke Road,Redcar,Cleveland,,TS10 4NW,54.6008148193,-1.0695776939,01642 475222,,,
3100,A81070,GP,Visible,True,True,Wynyard Road Primary Care Centre,Wynyard Road,,Hartlepool,,,TS25 3DQ,54.6607551575,-1.2364239693,01429 223 195,,,01429 296 007
3101,A81602,GP,Visible,True,True,Dr Rasool,Queensway,Billingham,Cleveland,,,TS23 2LA,54.608291626,-1.294782877,01642 360033,,,01642 552892
3102,A81605,GP,Visible,True,False,Park Avenue Surgery,,13 Park Avenue,,Redcar,Cleveland,TS10 3LA,54.6147880554,-1.0555548668,01642 482647,surgery.parkavenue@nhs.net,http://www.parkavenuesurgery.co.uk,01642 480163
3103,A81608,GP,Visible,True,True,Elm Tree Surgery,51 Westbury Street,Thornaby,Stockton On Tees,Cleveland,,TS17 6NP,54.5546302795,-1.2989865541,01642 616 663,,,
3105,A81609,GP,Visible,True,True,A&B Medical Practice,,Endurance House,Clarence Street,Stockton On Tees,,TS18 2EP,54.5721321106,-1.3126078844,01642 676 906,,,01642 616 324
3106,A81610,GP,Visible,True,True,Dr Geoghegan & Partners,"Port Clarence Clinic, Royal Buildings",Port Clarence Road,Port Clarence,,England - Uk,TS2 1TW,54.5891036987,-1.232688427,01642 564 310,,,01642 566 854
3107,A81610,GP,Visible,True,True,The Roseberry Practice,Abbey Health Centre,Finchale Avenue,Billingham,Cleveland,,TS23 2DG,54.6117286682,-1.2921997309,01642 552 700,,,01642 532 908
3108,A81611,GP,Visible,True,True,Parkway Medical Centre,Cropton Way,Coulby Newham,Middlesbrough,Cleveland,,TS8 0TL,54.5248069763,-1.2137465477,01642 270033,contactus@parkwaymedicalcentre.com,www.parkwaymedicalcentre.com,01642 270055
3109,A81612,GP,Visible,True,True,Seaton Surgery,Station Lane,Seaton Carew,Hartlepool,Hartlepool,,TS25 1AX,54.6613960266,-1.1886489391,01429 278827,,,01429 864513
3110,A81613,GP,Visible,True,True,Journee Medical Practice,Health Centre,Victoria Road,Hartlepool,Cleveland,,TS26 8DB,54.6851425171,-1.2176008224,01429 262095,,,01429 272374
3111,A81618,GP,Visible,True,True,Dr Milner & Partners,Bath Street,Saltburn-By-The-Sea,Cleveland,,,TS12 1BJ,54.5827102661,-0.9746931791,01287 622207,,,01287 623803
3113,A81621,GP,Visible,True,False,Thorntree Surgery,Thorntree Surgery,11 Beresford Buildings,Middlesbrough,Cleveland,,TS3 9NB,54.5652084351,-1.183445096,0300 111 2300,,,01642 248261
3114,A81622,GP,Visible,True,True,Gladstone House Surgery,46 Victoria Road,Hartlepool,Cleveland,,,TS26 8DD,54.6856117249,-1.2181502581,01429 297290,,,01429 285132
3115,A81623,GP,Visible,True,True,Dr Syed,Endurance House,Clarence Street,Stockton,Cleveland,,TS18 2EP,54.5721321106,-1.3126078844,01642 602222,,"http://www.northshoremedical.nhs.uk/welcome,52200.htm",01642 616915
3117,A81629,GP,Visible,True,True,Riverside Medical Practice,Riverside Medical Practice,Alma Street,,Stockton-on-Tees,Cleveland,TS18 2AP,54.5689544678,-1.3161724806,01642 604117,,,01642 604602
3118,A81630,GP,Visible,True,False,Fulcrum Medical Practice,Acklam Road,Acklam,,Middlesbrough,Cleveland,TS5 4EQ,54.5634422302,-1.2578836679,01642 354550,,,01642 873575
3120,A81631,GP,Visible,True,True,West View Millennium Surgery,West View Road,,Hartlepool,,,TS24 9LJ,54.7098884583,-1.2227277756,01429 890400,,,01429 866444
3121,A81632,GP,Visible,True,False,The Birchtree Surgery,Health Centre,Lawson Street,Stockton On Tees,Cleveland,,TS18 1HU,54.5616912842,-1.3189228773,01642 633 561,,,01642 625 475
3122,A81633,GP,Visible,True,False,Dr Sykes,7 Harris Street,Middlesbrough,Cleveland,,,TS1 5EF,54.5754547119,-1.2424896955,01642 251 053,,,01642 246 005
3123,A81634,GP,Visible,True,True,The Arrival Practice,Endurance House,Clarence Street,Stockton-on-Tees,Cleveland,,TS18 2EP,54.5721321106,-1.3126078844,01642 615 415,,,01642 616 324
3124,A82003,GP,Visible,True,True,Dr G R Murray & Partners,Ulverston Community Health Centre,Stanley Street,Ulverston,Cumbria,,LA12 7BT,54.1988945007,-3.0979561806,01229 484141 ,,,01229 484159
3125,A82004,GP,Visible,True,False,Alston Medical Practice,Overwater,,Nenthead,Cumbria,,CA9 3NT,54.7868843079,-2.3441512585,01434 381214,kathleen.walton@gp-a82004.nhs.uk,,
3126,A82004,GP,Visible,True,False,Alston Medical Practice,The Surgery,Cottage Hospital,Alston,Cumbria,,CA9 3QX,54.8102111816,-2.4398195744,01434 381214,kathleen.walton@gp-a82004.nhs.uk,,01434 382210
3127,A82005,GP,Visible,True,True,Ambleside Health Centre - Grasmere Branch Surgery,1 Field Foot,Grasmere,Ambleside,Grasmere,,LA22 9TB,54.4596710205,-3.0235364437,,,,
3128,A82005,GP,Visible,True,True,Ambleside Health Centre,Rydal Road,Ambleside,Cumbria,,,LA22 9BP,54.4350471497,-2.9663262367,015394 32693,,,015394 32520
3129,A82006,GP,Visible,True,True,Appleby Medical Practice,The Riverside Building,Chapel Street,Cumbria,Appleby in Westmorland,Cumbria,CA16 6QR,54.5793266296,-2.4942398071,017683 51584,debbie.hewitt@gp-a82006.nhs.uk,http://www.applebymedicalpractice.co.uk/,017683 53375
3130,A82007,GP,Visible,True,True,Duke Street Surgery,4 Duke Street,,Barrow In Furness,Cumbria,,LA14 1LF,54.1112098694,-3.2261509895,01229 820068,,,01229 813840
3131,A82008,GP,Visible,True,True,Dr SH Rogerson & Partners,99 Abbey Road,,,Barrow in Furness,Cumbria,LA14 5ES,54.1192054749,-3.2229597569,01229 402525,,,01229 402544
3132,A82009,GP,Visible,True,True,Bridgegate Medical Centre,Bridgegate Medical Centre,Winchester Street,,Barrow-in-Furness,,LA13 9SH,54.1143341064,-3.2086808681,01229 820304,diane.clark@gp-a82009.nhs.uk,http://www.bridgegatemedicalcentre.nhs.uk,01229 836984
3133,A82010,GP,Visible,True,True,Dr Nugent JJ & Partners,Abbey Road Surgery,243 Abbey Road,,Barrow in Furness,,LA14 5JY,54.1242980957,-3.216676712,01229 821599,,http://www.abbey-practice.co.uk,01229 842429
3134,A82011,GP,Visible,True,True,Hartington Street Medical Practice,36-38 Hartington Street,,Barrow In Furness,Cumbria,,LA14 5SL,54.1167259216,-3.2292053699,01229 820554,a82011.reception@gp-a82011.nhs.uk,,01229 813718
3135,A82012,GP,Visible,True,False,Wetheral Surgery,Yew Tree Cottage,,Wetheral ,Cumbria,,CA4 8JD,54.8828544617,-2.8342807293,016977 2551,website@gp-a82012.nhs.uk,www.bramptonmedicalpractice.com,1697741944
3136,A82012,GP,Visible,True,False,Corby Hill Surgery part of Brampton Medical Practice,Beech House,Corby Hill,Carlisle,Cumbria,,CA4 8PL,54.905216217,-2.8141407967,016977 2551,website@gp-a82012.nhs.uk,www.bramptonmedicalpractice.com,016977 41944
3137,A82012,GP,Visible,True,False,Brampton Medical Practice,4 Market Place,Brampton,Cumbria,,,CA8 1NL,54.9423675537,-2.734826088,016977 2551,website@gp-a82012.nhs.uk,www.bramptonmedicalpractice.com,016977 41944
3138,A82013,GP,Visible,True,False,The Upper Eden Medical Practice,Main Street,Brough,Kirkby Stephen,Cumbria,,CA17 4AY,54.5278320313,-2.3216485977,017683 41294,,,017683 41068
3139,A82013,GP,Visible,True,False,The Upper Eden Medical Practice,Off Church Street,,Tebay,Cumbria,,CA10 3XB,54.4323387146,-2.5923361778,015396 24591,,,017683 72385
3140,A82013,GP,Visible,True,False,The Upper Eden Medical Practice,Silver Street,Kirkby Stephen,Cumbria,,,CA17 4RB,54.4747390747,-2.3499031067,017683 71369,,,017683 72385
3141,A82014,GP,Visible,True,True,Caldbeck Surgery,Friar Row,Caldbeck,Wigton,Cumbria,,CA7 8DS,54.7498779297,-3.0506541729,016974 78254,,,016974 78661
3142,A82015,GP,Visible,True,True,Warwick Road Surgery,65 Warwick Road,Carlisle,Cumbria,,,CA1 1EB,54.8938369751,-2.9284946918,01228 536303,claire.carswell@gp-a82015.nhs.uk,,01228 593606
3143,A82016,GP,Visible,True,True,St Paul's Medical Centre,Spencer House,St Paul's Square,Carlisle,Cumbria,,CA1 1DG,54.8936576843,-2.9306733608,01228 524354,admin@spmc.co.uk,http://www.spmc.co.uk/,01228 616660
3144,A82016,GP,Visible,True,True,St Paul's Medical Centre,St. Pauls Square,Carlisle,Cumbria,,,CA1 1DG,54.8936576843,-2.9306733608,01228 524354,admin@spmc.co.uk,,01228 616660
3145,A82017,GP,Visible,True,True,Brunswick House Medical Group,1 Brunswick Street,,,CARLISLE,,CA1 1ED,54.8932304382,-2.9292602539,01228 515808,,http://bhmg.co.uk/,01228 593048
3146,A82017,GP,Visible,True,True,Brunswick House Medical Group,Branch Surgery,1 Eastern Way,Harraby,CARLISLE,,CA1 3QZ,54.8793067932,-2.9092388153,01228 515808,,http://bhmg.co.uk/,01228 596429
3147,A82018,GP,Visible,True,True,Spencer Street Surgery,10 Spencer Street,Carlisle,Cumbria,,,CA1 1BP,54.8948936462,-2.9311072826,01228 529171,reception@gp-a82018.nhs.uk,www.spencerstreetsurgery.co.uk,
3148,A82018,GP,Visible,True,True,Blackwell Road Branch Surgery,42 Blackwell Road,,Carlisle,Carlisle,,CA2 4EQ,54.8817901611,-2.9289033413,,,,
3149,A82019,GP,Visible,True,True,Fusehill Medical Practice,Fusehill Medical Centre,Fusehill Street,,Carlisle,Cumbria,CA1 2HE,54.890663147,-2.9229180813,01228 527559,,,01228 594434
3150,A82019,GP,Visible,True,True,Fusehill Medical Practice,15 Scotland Road,Carlisle,Cumbria,,,CA3 9HR,54.9041671753,-2.9373569489,01228 533872,,,
3151,A82020,GP,Visible,True,True,Eden Medical Group,Port Road,Carlisle,Cumbria,,,CA2 7AJ,54.8942070007,-2.9524366856,01228 524477,,,01228 553809
3152,A82021,GP,Visible,True,True,Castlegate Surgery,Cockermouth Health Centre,Isel Road,,Cockermouth,Cumbria,CA13 9HT,54.666847229,-3.3585662842,01900 705750,sid.williamson@ncumbria.nhs.uk,http://www.castlegatesurgery.nhs.uk/,01900 705395
3153,A82022,GP,Visible,True,False,Dalston Medical Group,Townhead Road,Dalston,Carlisle,Cumbria,,CA5 7PZ,54.841381073,-2.9855427742,01228 710451,,http://www.dalstonmedicalgroup.org.uk,01228 711898
3154,A82023,GP,Visible,True,False,Hinnings Road Surgery,Hinnings Road,Distington,Workington,Cumbria,,CA14 5UR,54.5953025818,-3.541336298,01946 830207,,,01946 833793
3155,A82024,GP,Visible,True,False,Seascale Health Centre,Gosforth Road,Seascale,Cumbria,,,CA20 1PN,54.3967437744,-3.4799833298,019467 28101,,,019467 27895
3156,A82024,GP,Visible,True,False,Bootle Branch Surgery,Chapel Lane,Bootle,Millom,Cumbria,,LA19 5UE,54.2815055847,-3.3745150566,01229 718711,,,
3157,A82025,GP,Visible,True,True,Captain French Surgery,The Gillingate Centre,Gillinggate Centre,Gillinggate,Kendal,Cumbria,LA9 4JE,54.3234443665,-2.748547554,01539 720241,,,01539 725048
3158,A82026,GP,Visible,True,False,The James Cochrance Practice H/C,Helme Chase Surgery,Burton Road,Kendal,Cumbria,,LA9 7HR,54.3126220703,-2.7371456623,01539 718080,,http://www.jamescochranepractice.co.uk,01539 718077
3159,A82026,GP,Visible,True,False,The James Cochrane Practice M/S,Maude Street Surgery,Maude Street,Kendal,Cumbria,,LA9 4QE,54.3302688599,-2.747948885,01539 718080,,http://www.jamescochranepractice.co.uk,01539 718078
3160,A82027,GP,Visible,True,False,Station House Surgery,Station Road,Station Road,Kendal,Kendal,,LA9 6SA,54.3319625854,-2.7397215366,01539 722660,,,01539 777293
3161,A82028,GP,Visible,True,True,Castlehead Medical Centre,Ambleside Road,Keswick,Cumbria,,,CA12 4DB,54.5977058411,-3.134557724,017687 72025,,http://www.castlehead.org.uk,017687 73862
3162,A82029,GP,Visible,True,True,The Croft Surgery,Kirkbride,,Wigton,Cumbria,,CA7 5JH,54.8971443176,-3.2028253078,016973 51207,,,016973 52063
3163,A82030,GP,Visible,True,False,Dr P J I Hall & Partners,West View Surgery,Lancaster Road,Hornby,Lancaster,,LA2 8JS,54.1080055237,-2.6370282173,015242 21216,,,
3164,A82030,GP,Visible,True,False,Dr P J I Hall & Partners,Lunsdale Surgery,,Kirkby Lonsdale,Cumbria,,LA6 2HQ,54.2006034851,-2.6022446156,015242 71210,,,015242 727133
3165,A82031,GP,Visible,True,True,"Shap Medical Practice, Orton Branch Surgery",Market Hall,Orton,Penrith,Cumbria,,CA10 3RJ,54.4680862427,-2.5851225853,01931 716230,,www.shapmedicalpractice.co.uk,01931 716231
3166,A82031,GP,Visible,True,True,"Shap Medical Practice, Tebay Branch Surgery",Church Street,Tebay,Penrith,Cumbria,,CA10 3XB,54.4323387146,-2.5923361778,01931 716230,,www.shapmedicalpractice.co.uk,01931 716231
3167,A82031,GP,Visible,True,True,Shap Medical Practice,Shap Health Centre,Peggy Nut Croft,"Shap, Penrith",Cumbria,,CA10 3LW,54.5288963318,-2.6779162884,01931 716230,,www.shapmedicalpractice.co.uk,01931 716231
3168,A82032,GP,Visible,True,True,Maryport Group practice,Alneburgh House,Ewanrigg Road,Maryport,Cumbria,,CA15 8EL,54.7064361572,-3.4945163727,01900 815544,,,01900 816626
3169,A82033,GP,Visible,True,True,Waterloo House Surgery,Waterloo House Surgery,40/44 Wellington Street,Millom,Cumbria,,LA18 4DE,54.2093200684,-3.266453743,01229 772123,,,01229 771300
3170,A82034,GP,Visible,True,False,Dr J H Gorrigan & Partners,Memorial Hall,Main Street,Burton In Kendal,Cumbria,,LA6 1NA,54.1824188232,-2.7210366726,,,,
3171,A82034,GP,Visible,True,False,Dr J H Gorrigan & Partners,The Institute,Levens,Cumbria,,,LA8 8PU,54.266292572,-2.7881066799,,,,
3172,A82034,GP,Visible,True,False,Dr J H Gorrigan & Partners,Police Square,,Milnthorpe,Cumbria,,LA7 7PW,54.2272796631,-2.7706894875,015395 63307,,,015395 62005
3173,A82035,GP,Visible,True,True,Birbeck Medical Group,Penrith Health Centre,Bridge Lane,Penrith,Cumbria,,CA11 8HW,54.6561660767,-2.7438490391,01768 214620,,,01768 214622
3174,A82036,GP,Visible,True,True,The Lakes Medical Practice,Penrith Health Centre,Bridge Lane,,Penrith,Cumbria,CA11 8HW,54.6561660767,-2.7438490391,01768 214345,thelakes@gp-a82036.nhs.uk,http://www.thelakesmedicalpractice.co.uk,01768 214346
3175,A82037,GP,Visible,True,True,Silloth Group Medical Practice,Lawn Terrace,Silloth,Wigton,Cumbria,,CA7 4AH,54.8697357178,-3.3935258389,016973 31309,,http://www.sillothgroupmedicalpractice.nhs.uk,016973 32834
3176,A82038,GP,Visible,True,True,Temple Sowerby Medical Practice,Linden Park,Temple Sowerby,Penrith,Cumbria,,CA10 1RW,54.6374320984,-2.6047964096,017683 61232,tssurgery@gp-a82038.nhs.uk,,017683 61980
3177,A82039,GP,Visible,True,True,Market Street Medical Practice,Market Street Medical Practice,92 Market Street,,Dalton-in-Furness,,LA15 8AB,54.155921936,-3.1798014641,01229 462591,,,01229 468217
3178,A82040,GP,Visible,True,False,Catherine Street Surgery,3 Catherine Street,,Whitehaven,Cumbria,,CA28 7PD,54.5468673706,-3.5849938393,01946 693094,,,01946 592597
3179,A82041,GP,Visible,True,False,Lowther Medical Centre,1 Castle Meadows,Whitehaven,Cumbria,,,CA28 7RG,54.5450706482,-3.5863463879,01946 692241,,,01946 590617
3180,A82044,GP,Visible,True,True,Fellview Healthcare Ltd,Flatt Walks Surgery,3 Castle Meadows,,Whitehaven,Cumbria,CA28 7QE,54.5447158813,-3.5865800381,01946 692173,,http://www.fellviewhealthcare.nhs.uk,01946 590606
3181,A82045,GP,Visible,True,True,Wigton Group Medical Practice,South End,Wigton,Cumbria,,,CA7 9QD,54.8203125,-3.1589691639,016973 42254,lin.baillie@gp-a82045.nhs.uk,http://www.wigtonmedicalpractice.co.uk,016973 45464
3182,A82046,GP,Visible,True,True,Windermere Health Centre,Windermere,Goodly Dale,Bowness-on-Windermere,Windermere,Cumbria,LA23 2EG,54.3708305359,-2.9133586884,015394 45159,,http://www.windermerehealthcentre.co.uk/,015394 46029
3183,A82047,GP,Visible,True,True,James Street Group Practice,James Street,Workington,Cumbria,,,CA14 2DL,54.6446456909,-3.5503320694,01900 62241,,,01900 603385
3184,A82048,GP,Visible,True,True,Beechwood Group Practice,57 John Street,Workington,Cumbria,,,CA14 3FT,54.6423721313,-3.5455653667,01900 64866,,,01900 871561
3185,A82049,GP,Visible,True,True,Orchard House Surgery,Ann Burrow Thomas Health Centre,South William Street,,Workington,,CA14 2EW,54.645362854,-3.5499253273,01900 603985,,,01900 871761
3186,A82050,GP,Visible,True,True,Oxford Street Surgery,,20 Oxford Street,,Workington,Cumbria,CA14 2AJ,54.6436920166,-3.5504662991,01900 603302,sharon.wilson@gp-a82050.nhs.uk,,01900 871604
3187,A82052,GP,Visible,True,False,North Carlisle Medical Practice,,North Carlisle Medical Practice,Eden Street,Carlisle,Cumbria,CA3 9JZ,54.910484314,-2.9422674179,01228 525768,,http://www.stanwixmedicalpractice.nhs.uk,01228 592965
3188,A82053,GP,Visible,True,True,Drs Irwin Reeve & Golding,The Health Centre,Kents Bank Road,,Grange over Sands,Cumbria,LA11 7DJ,54.1879348755,-2.9156348705,01539 715500,,,01539 777200
3189,A82055,GP,Visible,True,True,Aspatria Medical Group,West Street Health Centre,West Street,Aspatria,Wigton,Cumbria,CA7 3HH,54.7621383667,-3.3380553722,016973 20209,,,016973 22333
3190,A82057,GP,Visible,True,False,Derwent Surgery,Cockermouth Community Hospital and Health Centre,Isel Road,Cockermouth,Cumbria,,CA13 9HT,54.666847229,-3.3585662842,01900 705350,,http://www.derwentsurgery.co.uk/,01900 705390
3191,A82058,GP,Visible,True,False,Queen Street Medical Practice,Richard Benedict House,149 Queen Street,Whitehaven,Cumbria,,CA28 7BA,54.5465736389,-3.5890483856,01946 694457,reception@gp-a82058.nhs.uk,,01946 590613
3192,A82060,GP,Visible,True,True,Whitehaven  Medical Centre,Catherine Street,Whitehaven,Cumbria,Whitehaven,,CA28 7PA,54.5459060669,-3.5860176086,01946 693412,,,
3193,A82062,GP,Visible,True,True,Atkinson Health Centre,Market Street,,Barrow In Furness,Barrow-in-Furness,,LA14 2LR,54.109992981,-3.2283024788,01229 822205,prescriptions.wiejak@gp-a82062.nhs.uk,http://www.atkinsonhealthcentrepractice.nhs.uk,01229 845976
3194,A82063,GP,Visible,True,True,Bank Street Surgery,Bank Street Surgery,9 Bank Street,Keswick,Cumbria,,CA12 5JY,54.6020736694,-3.1381003857,017687 72438,,,017687 72454
3195,A82064,GP,Visible,True,False,Westcroft House,66 Main Street,,Egremont,Cumbria,,CA22 2DB,54.4830856323,-3.5286681652,01946 820348,,http://westcrofthouse.co.uk,01946 821611
3196,A82065,GP,Visible,True,True,Rose Grove Surgery,Fairfield Surgery,Flookburgh,Grange Over Sands,Cumbria,,LA11 7JY,54.1751976013,-2.9730494022,015395 58307,,,015395 58442
3197,A82065,GP,Visible,True,True,Rose Grove Surgery,Albert Road,Grange-Over-Sands,Cumbria,Grange-Over-Sands,,LA11 7EZ,54.1921844482,-2.910946846,015395 33018,,,
3198,A82068,GP,Visible,True,True,Dr Hambly and Partners,Ulverston Community Health Centre,Stanley Street,,Ulverston,Cumbria,LA12 7BT,54.1988945007,-3.0979561806,01229 484100,,,01229 484101
3199,A82070,GP,Visible,True,False,Dr P Burns & Partners,St Mary's Surgery,Applethwaite,Windermere,Cumbria,,LA23 1BA,54.380771637,-2.9088218212,015394 88484,,,01539 442838
3200,A82070,GP,Visible,True,False,Dr P Burns & Partners,Staveley Surgery,9 Crook Road,Staveley,Kendal,,LA8 9NG,54.3724822998,-2.8186328411,01539 821341,,,
3201,A82071,GP,Visible,True,True,Burnett Edgar Medical Centre,Central Drive,Walney,Barrow-In-Furness,Cumbria,,LA14 3HY,54.1071586609,-3.2548940182,01229 474526,,,01229 475282
3202,A82072,GP,Visible,True,True,Dr Jolliffe GC & Partner,2-4 Gloucester Street,Barrow-In-Furness,Cumbria,,,LA13 9RX,54.1117935181,-3.2077960968,01229 822332,,,01229 433636
3203,A82074,GP,Visible,True,True,Dr D Kew ,Arnside Medical Practice,Orchard Road,Arnside,Carnforth,,LA5 0DP,54.2002906799,-2.8328990936,01524 761311,arnside@gp-a82074.nhs.uk,http://www.arnsidemedicalpractice.co.uk/,01524 762470
3204,A82074,GP,Visible,True,True,Dr D Kew ,20a Emesgate Lane,Silverdale,Carnforth,Lancs,,LA5 0RA,54.1684608459,-2.8269901276,01524 701744,,,
3206,A82077,GP,Visible,True,True,Liverpool House Surgery,69 Risedale Road,,Barrow In Furness,"Barrow-in-Furness, Cumbria",,LA13 9QY,54.1127204895,-3.2095057964,01229 402630,prescriptions@liverpoolhouse.com,http://www.liverpoolhousesurgery.nhs.uk/,01229 432156
3208,A82608,GP,Visible,True,False,Sedbergh Medical Centre - Branch Surgery,Methodist Church Hall,Dent,Sedbergh,Dent,,LA10 5QJ,54.2785186768,-2.4564344883,,,,
3209,A82608,GP,Visible,True,False,Sedbergh Medical Centre,Station Road,Station Road,Sedbergh,Sedbergh,,LA10 5DL,54.3223686218,-2.5352833271,01539 718191,,http://www.sedberghmp.nhs.uk/,015396 20586
3210,A82613,GP,Visible,True,False,Coniston Medical Practice,Wraysdale House,,Coniston,Cumbria,,LA21 8ER,54.3672523499,-3.076061964,015394 41205,,,015394 41205
3212,A82617,GP,Visible,True,False,Kirkoswald Surgery,Kirkoswald Surgery,Ravenghyll,Kirkoswald,Penrith,Cumbria,CA10 1DQ,54.7637825012,-2.692561388,01768 898560,,,01768 898905
3213,A82619,GP,Visible,True,True,Nelson Street Surgery,18 Nelson Street,,Dalton In Furness,Dalton in Furness,,LA15 8AF,54.157207489,-3.1817369461,01229 463999,,,01229 466900
3214,A82620,GP,Visible,True,False,Glenridding Health Centre,Glenridding,,,Penrith,Cumbria,CA11 0PD,54.5440444946,-2.9507684708,017684 82297,reception@gp-a82620.nhs.uk,http://www.glenriddinghealthcentre.co.uk,017684 82145
3215,A82621,GP,Visible,True,False,Dr P R Jain,The Surgery,2 Parklands Drive,Askam In Furness,Askam in Furness,,LA16 7JP,54.183719635,-3.2109186649,01229 462464,,,0709 235 6823
3217,A82623,GP,Visible,True,True,Solway Health Services,Park Lane,Workington,Cumbria,,,CA14 2RW,54.6427536011,-3.551453352,01900 705150,,,01900 605856
3218,A82625,GP,Visible,True,False,Haverthwaite Surgery,Backbarrow,,Ulverston,Cumbria,,LA12 8QF,54.2514724731,-2.9936158657,015395 31619,,,015395 31495
3220,A82625,GP,Visible,True,False,The Surgery - Haverthwaite Surgery Branch,Greenodd Village Hall,,,Greenodd,,LA12 7QZ,54.2337913513,-3.0541296005,1539531619,,,01539 531495
3221,A82629,GP,Visible,True,True,Dr R Karamchandani & Partner,The Family Practice,26 - 30 Hartington Street,,Barrow-in-Furness,Cumbria,LA14 5SL,54.116771698,-3.2287478447,01229 402900,,http://thefamilypracticebarrow.co.uk,01229 834677
3222,A82631,GP,Visible,True,False,Court Thorn Surgery,Court Thorn,Low Hesket,Carlisle,Cumbria,,CA4 0HP,54.8018226624,-2.8262166977,016974 73548,gp-a82631@nhs.net,http://www.courtthornsurgery.co.uk/,016974 73781
3223,A82632,GP,Visible,True,False,Dr Wigmore & Dr Kari,Grosvenor House Surgery,Warwick Square,,Carlisle,Cumbria,CA1 1LB,54.8930168152,-2.9258642197,01228 536561,,http://www.warwicksquaregrouppractice.co.uk,01228 515786
3224,A82632,GP,Visible,True,False,Dr Wigmore & Dr Kari,Morton Surgery,,,Carlisle,Cumbria,CA2 6DT,54.8836250305,-2.9629740715,01228 590818,,http://www.warwicksquaregrouppractice.co.uk,01228 512900
3225,A82635,GP,Visible,True,False,Dr Swain,Grosvenor House Surgery,Warwick Square,,Carlisle,Cumbria,CA1 1LB,54.8930778503,-2.9258856773,01228 536561,,http://www.warwicksquaregrouppractice.co.uk/,01228 515786
3226,A82635,GP,Visible,True,False,Dr Swain,Morton Surgery,,,Carlisle,Cumbria,CA2 6DT,54.8834152222,-2.9631242752,01228 590818,,http://www.warwicksquaregrouppractice.co.uk,01228 512900
3227,A82641,GP,Visible,True,False,Dr Frost,Morton Surgery,,,Carlisle,Cumbria,CA2 6DT,54.8835258484,-2.9631457329,01228 590818,,http://www.warwicksquaregrouppractice.co.uk,01228 512900
3228,A82641,GP,Visible,True,False,Dr Frost,Grosvenor House Surgery,Warwick Square,,Carlisle,Cumbria,CA1 1LB,54.8930892944,-2.925907135,01228 536561,,http://www.warwicksquaregrouppractice.co.uk,01228 515786
3229,A82642,GP,Visible,True,True,Hawkshead Medical Practice,Red Lion Yard,Hawkshead,Ambleside,Cumbria,,LA22 0NU,54.3754272461,-2.998254776,01539 436246,,,01539 436710
3230,A82646,GP,Visible,True,False,Esk Valley Medical Group,Longtown Medical Centre,Longtown,Carlisle,Cumbria,,CA6 5XA,55.010509491,-2.9643707275,01228 791328,,,01228 791942
3232,A82647,GP,Visible,True,False,Dr Milligan SD & Partner,Cartmel Surgery,"Haggs Lane, Cartmel",Grange Over Sands,Cumbria,,LA11 6PH,54.1991958618,-2.9470171928,015395 36366,pre.req@cartmelsurgery.co.uk,www.cartmelsurgery.co.uk,015395 36766
3234,A82651,GP,Visible,True,False,Dr N L Hall & Dr L A Wilson,Askew Gate,,Kirkby In Furness,Cumbria,,LA17 7TE,54.23229599,-3.1841118336,01229 889247,,,01229 889097
3235,A82651,GP,Visible,True,False,Dr N L Hall & Dr L A Wilson,Broughton Surgery,Foxfield Road,Broughton In Furness,Cumbria,,LA20 6EZ,54.2747840881,-3.2118065357,01229 716337,,,01229 716337
3236,A83001,GP,Visible,True,True,Sensier House Medical Practice,Adan House,St andrews Lane,Spennymoor,Co Durham,,DL16 6QA,54.6996383667,-1.5981976986,01388 817 777,,,01388 811 700
3237,A83003,GP,Visible,True,True,Chadwick & Partners,Chapel Street,Willington,Crook,County Durham,,DL15 0EQ,54.7095985413,-1.6951795816,01388 742500,willingtonmedical-group@nhs.net,http://www.willingtonmedicalgroup.org.uk,01388 742502
3238,A83004,GP,Visible,True,True,Kapoor KR & AL,The Avenue,Deneside,Seaham,County Durham,,SR7 8LF,54.8368492126,-1.3488795757,0191 513 0884,drkapoor@daltonet.com,,0191 581 1855
3239,A83005,GP,Visible,True,True,Whinfield Medical Practice - Dr Harker & Partners,Whinbush Way,,Darlington,County Durham,,DL1 3RT,54.5462989807,-1.5249633789,01325 481 321,,http://www.whinfield.co.uk,01325 346 683
3240,A83006,GP,Visible,True,True,Orchard Court Surgery,Orchard Road,,Darlington,County Durham,,DL3 6HZ,54.5323028564,-1.5666638613,01325 465285,,,01325 284034
3241,A83007,GP,Visible,True,False,Blackhall & Peterlee Practice,O'Neill Drive,,Peterlee,County Durham,,SR8 5TZ,54.754070282,-1.3330079317,0191 586 4331,,www.blackhallandpeterleepractice.co.uk,0191 586 8288
3242,A83007,GP,Visible,True,False,Blackhall & Peterlee Practice,Hesleden Road,,Blackhall,Cleveland,,TS27 4LQ,54.7468414307,-1.289675355,0191 586 4331,,www.blackhallandpeterleepractice.co.uk,0191 586 4844
3243,A83008,GP,Visible,True,False,Hallgarth Surgery,,Cheapside,,Shildon,,DL4 2HP,54.6349220276,-1.6435608864,01388 772 662,,http://www.intrahealth.co.uk/surgeries/hallgarth-surgery,01388 774 150
3244,A83009,GP,Visible,True,True,Lilly & Partners,Bridge End Surgery,Picktree Lane,,Chester le Street,Durham,DH3 3SL,54.8593063354,-1.5734642744,0191 3883236,,https://www.bridgeendsurgery.com,0191 3890989
3245,A83010,GP,Visible,True,True,Dr Rhodes & Partners,139a Willow Road,Darlington,Co Durham,,,DL3 9JP,54.5342445374,-1.5775382519,01325 469 168,,http://www.moorlandssurgerydarlington.co.uk,01325 353 695
3246,A83011,GP,Visible,True,True,"Claypath and  University Medical Group, University Health Centre",Green Lane,Old Elvet,Durham,Co Durham,,DH1 3JX,54.7737083435,-1.5650998354,0191 3865081,g.bevan@nhs.net,http://www.durhamstudenthealth.co.uk,0191 3751099
3247,A83011,GP,Visible,True,True,"Claypath and  University Medical Group, Claypath Medical Centre",26 Gilesgate,Durham,Co Durham,,,DH1 1QW,54.778755188,-1.5672533512,0191 374 6888,g.bevan@nhs.net,http://www.claypathdoctors.co.uk,0191 374 6894
3248,A83012,GP,Visible,True,True,William Brown Centre,Manor Way,,Peterlee,County Durham,,SR8 5TW,54.7580070496,-1.3314048052,0191 5691060,,http://www.intrahealth.co.uk/surgeries/william-brown-medical-centre-centenary-year-2011,0191 5544552
3249,A83012,GP,Visible,True,True,Arbroath House,Seaside Lane South,,Easington Colliery,County Durham,,SR8 3PE,54.7879905701,-1.3244256973,0191 5270328,,http://www.intrahealth.co.uk/surgeries/arbroath-house-surgery-celebrating-100-years-of-local-service,
3250,A83013,GP,Visible,True,True,"Drs McIlhinney, Russ and Mathieson",Neasham Road Surgery,186 Neasham Road,,Darlington,,DL1 4YL,54.5173225403,-1.5426471233,01325 461 128,neashamroad.surgery@nhs.net,http://www.neashamroadsurgery.co.uk,01325 469 123
3251,A83014,GP,Visible,True,True,Sherburn Surgery,Gray Avenue,,Sherburn,Co. Durham,,DH6 1JE,54.778503418,-1.5080069304,0844 4773502,kim.metcalfe1@nhs.net,,0191 3721238
3252,A83014,GP,Visible,True,True,Belmont Surgery,Broomside Lane,,Belmont,Co. Durham,,DH1 2QW,54.7861595154,-1.5280821323,0844 4773492,kim.metcalfe1@nhs.net,,0191 3860592
3253,A83015,GP,Visible,True,True,STATION VIEW MEDICAL CENTRE,29A ESCOMB ROAD,,BISHOP AUCKLAND,CO DURHAM,,DL14 6AB,54.6566047668,-1.6782157421,01388 452711,stationview.a83015@nhs.net,www.stationviewmedicalcentre.co.uk,01388 452719
3254,A83015,GP,Visible,True,True,Station View Medical Centre@ The Eden Centre,Victoria Lane,,Coundon,County Durham,,DL14 8NP,54.6610984802,-1.6280781031,01388 601860,stationview.a83015@nhs.net,www.stationviewmedicalcentre.co.uk,01388 660361
3255,A83016,GP,Visible,True,True,Tanfield View Medical Group,Scott Street,Tanfield,Stanley,County Durham,,DH9 8AD,54.8699417114,-1.7013579607,01207 232 384,kate.pickering@gp-a83016.nhs.uk,,01207 237 763
3257,A83017,GP,Visible,True,True,Phoenix Medical Group,Dunelm Road,Thornley,Durham,Co Durham,,DH6 3HW,54.748840332,-1.4456959963,01429 820 235,,http://www.drmahtoandpartners.co.uk/,01429 823 066
3258,A83017,GP,Visible,True,True,Phoenix Medical Group,Thornley Road,The Surgery,Thornley Road,Wheatley Hill,Durham,DH6 3NR,54.7454223633,-1.4183247089,01429 820 233,,http://www.drmahtoandpartners.co.uk/,
3259,A83017,GP,Visible,True,True,Phoenix Medical Group,The Health Centre,The Green,Woodland Crescent,Kelloe,Durham,DH6 4NU,54.7200660706,-1.4805064201,0191 377 2162,,http://www.drmahtoandpartners.co.uk/,
3260,A83018,GP,Visible,True,True,Young & Partners,Station Yard,,Consett,County Durham,,DH8 5YA,54.8511886597,-1.8280251026,01207 583400,,consettmedicalcentre.co.uk,01207 508120
3261,A83019,GP,Visible,True,False,"Drs Abbott, Patel & Uehlein",56 Front Street,,Haswell,"Haswell, County Durham",,DH6 2BL,54.7834663391,-1.4169083834,0191 526 3200,ann.summerill@gp-a83019.nhs.uk,,
3262,A83019,GP,Visible,True,False,"Drs Abbott, Patel & Uehlein","Suite No. 3, Peterlee Health Centre",,Peterlee,"Peterlee, County Durham",,SR8 1AD,54.7582969666,-1.3355956078,0191 518 4147,ann.summerill@gp-a83019.nhs.uk,,
3263,A83019,GP,Visible,True,False,Drs Patel &  Uehlein,"Station Road Surgery, Station Road, ",Station Road,Shotton Colliery,Durham,Durham,DH6 2JL,54.7644615173,-1.3955786228,0191 526 5913,linda.khalil@nhs.net,,0191 526 2651
3264,A83020,GP,Visible,True,True,North House Surgery,Hope Street,Crook,Co Durham,,,DL15 9HU,54.7170143127,-1.7472820282,01388 762945,,,01388 765333
3265,A83021,GP,Visible,True,True,Auckland Medical Group,54 Cockton Hill Road,Bishop Auckland,Co Durham,,,DL14 6BB,54.6531257629,-1.678212285,01388 602728,,http://www.aucklandmedicalgroup.co.uk,01388 607546
3266,A83021,GP,Visible,True,True,Auckland Medical Group,51 Toft Hill,,Bishop Auckland,County Durham,,DL14 0JA,54.6483383179,-1.7504973412,01388 834843,,http://www.aucklandmedicalgroup.co.uk,01388 833742
3267,A83021,GP,Visible,True,True,Auckland Medical Group,16 Manor Road,St Helen Auckland,Bishop Auckland,Co Durham,,DL14 9EP,54.6353759766,-1.7136588097,01388 604163,,http://www.aucklandmedicalgroup.co.uk,01388 450977
3268,A83022,GP,Visible,True,True,Dr Murray & Partners,Mackenzie House,Newhouse Road,Esh Winning,DH7 9LA,Durham,DH7 9LA,54.7720184326,-1.7066178322,0191 3734 232,,,
3269,A83022,GP,Visible,True,True,Dr Murray & Partners,Rear Church Street,Langley Park,Co Durham,Durham,Durham,DH7 9XD,54.7994918823,-1.6743450165,0191 373 1386,,http://www.themedicalgroup.co.uk/,0191 373 4288
3270,A83022,GP,Visible,True,True,Dr Murray & Partners,Rear High Street,Tow Law,Bishop Auckland,Durham,,DL13 4DH,54.7453193665,-1.8150727749,01388 730 251,,http://www.themedicalgroup.co.uk/,01388 730 450
3271,A83022,GP,Visible,True,True,Dr Murray & Partners,Sawmills Lane,Meadowfield,Durham,Durham,,DH7 8NH,54.748249054,-1.6288607121,0191 378 0651,,http://www.themedicalgroup.co.uk/,0191 378 7328
3272,A83022,GP,Visible,True,True,Dr Murray & Partners,Durham Road,Ushaw Moor,Durham,,,DH7 7QH,54.7764549255,-1.6411993504,0191 373 0202,,,0191 373 0519
3273,A83023,GP,Visible,True,True,Stanley Medical Group,Stanley Primary Care Centre,Clifford Road,Stanley,County Durham,,DH9 0AB,54.8700141907,-1.6980540752,01207 285800,cd-pct.stanleymedicalgroup@nhs.net,www.stanleymedicalgroup.co.uk,01207 285588
3274,A83023,GP,Visible,True,True,Stanley Medical Group - Branch,16 Front Street,Annfield Plain,Stanley,Co Durham,Durham,DH9 8HY,54.8583450317,-1.7381907701,01207 214849,,,01207 214847
3275,A83024,GP,Visible,True,False,Dr Nicholson & Partners,Woodland View,West Rainton,Houghton-le-Spring,Tyne and Wear,Durham,DH4 6RQ,54.8104972839,-1.5052543879,0191 584 3809,,http://www.westraintonsurgery.co.uk,
3276,A83025,GP,Visible,True,True,Bishopgate Medical Centre,Bishopgate Medical Centre,178 Newgate Street,Bishop Auckland,County Durham,,DL14 7EJ,54.659160614,-1.6761959791,01388 660990,,http://www.bishopgate.co.uk/,01388 607782
3277,A83025,GP,Visible,True,True,The Eden Centre,The Eden Centre,Victoria Lane,Coundon,Durham,,DL14 8NP,54.6610984802,-1.6280781031,01388 660363,,http://www.bishopgate.co.uk,01388 607782
3278,A83026,GP,Visible,True,True,Dr Walton  & Partners,Front Street,,Sacriston,Co. Durham,,DH7 6JW,54.8196868896,-1.628397584,0191 371 0232,,,0191 371 8306
3279,A83027,GP,Visible,True,True,Dr Woods & Partners,,1 Lansdowne Road,Coxhoe,Durham,,DH6 4DH,54.7146759033,-1.5043246746,0191 3770215,,,0191 3770604
3280,A83028,GP,Visible,True,True,Middle Chare Medical Group - Middle Chare Surgery,Middle Chare Surgery,Middle Chare,Chester-le-Street,Co.Durham,,DH3 3QD,54.8558349609,-1.5732704401,0191 5947654,,,0191 3887448
3281,A83028,GP,Visible,True,True,Middle Chare medical Group - Woodlands Surgery,Woodlands Surgery,Vigo Lane,Washington,Tyne and Wear,,NE38 9EJ,54.879650116,-1.5482132435,0191 5947654,,,
3282,A83029,GP,Visible,True,True,Fletcher & Partners,Front Street,Great Lumley,Chester-le-Street,Co. Durham,,DH3 4LE,54.8372764587,-1.5430401564,0191 3885600,elizabethsimpson2@nhs.net,http://www.greatlumleysurgery.co.uk,0191 3883912
3283,A83030,GP,Visible,True,True,Dunelm Medical Practice - Gilesgate,Sunderland Road,,Durham,Durham,,DH1 2QG,54.7796096802,-1.5519613028,0191 386 4242,,,0191 373 6216
3284,A83030,GP,Visible,True,True,Dunelm Medical Practice - Framwellgate Moor,50 Front Street,Framwellgate Moor,Durham,Durham,,DH1 5BL,54.7960090637,-1.5897152424,0191 386 6044,,,0191 373 6216
3285,A83030,GP,Visible,True,True,Dunelm Medical Practice - Bearpark,1 Victor Terrace,Bearpark,Durham,Durham,,DH7 7DG,54.7834320068,-1.6361154318,0191 373 2077,,,0191 373 6216
3286,A83031,GP,Visible,True,True,Carmel Medical Practice,Nunnery Lane,,Darlington,County Durham,,DL3 8SQ,54.5279693604,-1.5792564154,01325 520 794,,http://www.carmelmedicalcentre.co.uk,01325 381 834
3287,A83032,GP,Visible,True,False,Woodview Medical Practice,The Green,Cockfield,Bishop Auckland,County Durham,,DL13 5AF,54.6128120422,-1.8040395975,01388 718 202,,http://www.woodviewmedicalpractice.co.uk,01388 710 600
3288,A83032,GP,Visible,True,False,Woodview Medical Practice,Copeland Lane,Evenwood,Bishop Auckland,County Durham,,DL14 9SU,54.6201248169,-1.7585986853,01388 718202,,www.woodviewmedicalpractice.co.uk,
3289,A83032,GP,Visible,True,False,Woodview Medical Practice,Dovecote Street,Staindrop,Darlington,County Durham,,DL2 3LZ,54.5806808472,-1.8025381565,01388 718202,,,
3290,A83033,GP,Visible,True,True,Pelton and Fellrose Medical Group,The Lavender Centre,Pelton Lane,Pelton,Co. Durham,,DH2 1HS,54.873210907,-1.6038811207,0191 370 0500,,http://www.peltonandfellrose.nhs.uk/,0191 370 4181
3291,A83033,GP,Visible,True,True,Dr Wheatley & Partners,Craghead Road,Pelton Fell,Chester-le-Street,Co. Durham,,DH2 2NH,54.8586654663,-1.6086623669,0191 388 9898,,,0191 3408896
3292,A83034,GP,Visible,True,True,Blacketts Medical Practice,"63-65 Bondgate,",,Darlington,County Durham,,DL3 7JR,54.5272216797,-1.5589920282,01325 380640,,http://www.blackettsmedical.com,01325 350938
3293,A83035,GP,Visible,True,False,Weardale Practice,Dale Street,Stanhope,Bishop Auckland,County Durham,,DL13 2XD,54.7462043762,-2.0027801991,01388 528555,,,01388 526122
3294,A83035,GP,Visible,True,False,Weardale Practice,Market Place,Wolsingham,Bishop Auckland,County Durham,,DL13 3AB,54.7297401428,-1.8833373785,01388 527691,,,01388 528022
3295,A83035,GP,Visible,True,False,Weardale Practice,Hood Street,St Johns Chapel,Bishop Auckland,County Durham,,DL13 1QW,54.7381210327,-2.1857376099,01388 537296,,,01388 537638
3296,A83036,GP,Visible,True,True,Chastleton Medical Group,Newton Drive,,Framwellgate Moor,Co. Durham,,DH1 5BH,54.7957572937,-1.5871047974,0191 384 6171,,http://www.chastletonmedicalgroup.co.uk,0191 386 3743
3297,A83037,GP,Visible,True,True,Bewick Crescent Surgery,Bewick Crescent Surgery,27 Bewick Crescent,,Newton Aycliffe,,DL5 5LH,54.6175613403,-1.571829319,01325 316637,helen.hobson@nhs.net,http://www.bewickcrescentsurgery.nhs.uk,01325 301428
3298,A83037,GP,Visible,True,True,Bewick Crescent Surgery (Heighington Branch),30 West Green,Heighington Village,Darlington,Co Durham,,DL5 6PE,54.5958213806,-1.6179161072,,,www.bewickcrescentsurgery.nhs.uk,
3299,A83038,GP,Visible,True,True,Cedars Medical Group,Cedars Medical Group,Cedar Crescent,Burnopfield,Newcastle upon Tyne,Northumberland,NE16 6HU,54.9055709839,-1.7404267788,01207 272272,,http://www.cedarsmedicalgroup.co.uk,01207 272966
3300,A83038,GP,Visible,True,True,Cedars Medical Group - Stanley,Clifford Rd,Burnopfield,Newcastle Upon Tyne,Stanley,,DH9 0AB,54.8700141907,-1.6980540752,01207 272272,,http://www.cedarsmedicalgroup.co.uk,01207 272966
3301,A83040,GP,Visible,True,True,Clifton Court Medical Practice,Victoria Road,,Darlington,County Durham,,DL1 5JN,54.5210533142,-1.5483678579,01325 465 646,margaret.wood@gp-a83040.nhs.uk,,01325 482 524
3302,A83041,GP,Visible,True,False,Murton Medical Group,20 Woods Terrace East,Murton,Seaham,Co Durham,,SR7 9AB,54.8169975281,-1.3832947016,0191 5170170,,,0191 5264282
3303,A83042,GP,Visible,True,True,Carodoc Practice,Suite No. 2,Bede Way,Peterlee,County Durham,,SR8 1AD,54.7582969666,-1.3355956078,0191 586 7414,dawn.nelson@gp-a83042.nhs.uk,,01429 838 792
3304,A83042,GP,Visible,True,True,Carodoc Practice,Front Street West,,Wingate,County Durham,,TS28 5PZ,54.7255363464,-1.3788299561,01429 838 217,dawn.nelson@gp-a83042.nhs.uk,,01429 838 792
3305,A83043,GP,Visible,True,False,Old Forge Surgery,Middleton In Teesdale,,Barnard Castle,County Durham,,DL12 0QE,54.6230354309,-2.0798206329,01833 640217,middleton.teesdale@nhs.net,http://www.oldforgesurgery.net,01833 640961
3306,A83044,GP,Visible,True,True,Horden Group Practice,Peterlee Health Centre,,Peterlee,County Durham,,SR8 1AD,54.7582969666,-1.3355956078,0191 5870808,fiona.ashcroft@nhs.net,,0191 5870700
3307,A83044,GP,Visible,True,True,The Surgery,Sunderland Road,Horden,,County Durham,,SR8 4QP,54.7628326416,-1.3187991381,0191 5864210,angela.fisher@nhs.net,,0191 5869725
3308,A83045,GP,Visible,True,True,Ferryhill & Chilton Medical Practice ,The Health Centre ,Durham Road ,Chilton,County Durham,,DL17 0EW,54.6622619629,-1.5572679043,01388 720208,,,01740 656291
3309,A83045,GP,Visible,True,True,Ferryhill & Chilton Medical Practice ,THe Surgery ,Durham Road ,Ferryhill,County Durham,,DL17 8JJ,54.6897850037,-1.5567048788,01740 651238,,,01740 656291
3310,A83046,GP,Visible,True,False,White & Partners,Barnard Castle Surgery,Victoria Road,,Barnard Castle,Durham,DL12 8HT,54.5463294983,-1.9167280197,01833 690707,,http://www.barnardcastlesurgery.co.uk,01833 690840
3311,A83047,GP,Visible,True,True,Dr Uitenbosch & Partners,Denmark Street Surgery,Denmark Street,,Darlington,Durham,DL3 0PD,54.5389251709,-1.5522354841,01325 460731,,,01325 362183
3312,A83048,GP,Visible,True,True,Bagshaw & Williams,Rockliffe Court,Hurworth Place,Darlington,County Durham,,DL2 2DS,54.4835090637,-1.5440583229,01325 720605,,,1325
3313,A83049,GP,Visible,True,True,Dr Stuart and Partners,83 Queens Road,,,Consett,Durham,DH8 0BW,54.8666954041,-1.8438514471,01207 585 890,,,01207 585 891
3314,A83049,GP,Visible,True,True,Dr Stuart and Partners,"Park Terrace, Moorside",,,"Consett, County Durham",,DH8 8ET,54.8392219543,-1.8634821177,,,,
3315,A83050,GP,Visible,True,True,Cestria Health Centre,Whitehill Way,,,Chester Le Street,Durham,DH2 3DJ,54.8517227173,-1.5976698399,0191 3887771,,http://www.cestriahealthcentre.nhs.uk/,0191 3871803
3316,A83051,GP,Visible,True,True,Marlborough Surgery,,Seaham Primary Care Centre,St. Johns Square,Seaham,Durham,SR7 7JE,54.8358078003,-1.335460186,0191 5812866,margaretross1@nhs.net,,0191 5130393
3317,A83052,GP,Visible,True,True,Wood & Partners,Bishop's Close,,Spennymoor,County Durham,,DL16 6ED,54.6998214722,-1.5991114378,01388 811 455,,,01388 812 034
3318,A83054,GP,Visible,True,True,Jones & Partners - Fishburn,1 Butterwick Road,Fishburn,Stockton-on-Tees,Cleveland,,TS21 4AP,54.6826400757,-1.4353219271,01740 620284,neil.bunney@nhs.net,http://www.doctorsnhs.co.uk,01740 623870
3319,A83054,GP,Visible,True,True,Jones & Partners - Trimdon Colliery,Carroll House,Grosvenor Terrace,Trimdon Colliery,County Durham,,TS29 6DH,54.7182731628,-1.4145994186,01429 880284,neil.bunney@nhs.net,http://www.doctorsnhs.co.uk,01429 881405
3320,A83054,GP,Visible,True,True,Jones & Partners - Sedgefield,Harbinson House,Front Street,Sedgefield,Stockton-on-Tees,Cleveland,TS21 3BN,54.6540336609,-1.4487689734,01740 620300,neil.bunney@nhs.net,http://www.doctorsnhs.co.uk,01740 622075
3321,A83054,GP,Visible,True,True,Jones & Partners - Trimdon Village,18 Wynyard Road,Trimdon,Trimdon Village,Co Durham,,TS29 6JH,54.6973495483,-1.4308043718,01429 880254,neil.bunney@nhs.net,http://www.doctorsnhs.co.uk,01429 880924
3322,A83055,GP,Visible,True,True,Cheveley Park Medical Centre,The Links,,Belmont,Durham,,DH1 2UW,54.7856025696,-1.5258028507,0191 3864285,heather.crampton@nhs.net,,0191 3865934
3323,A83057,GP,Visible,True,True,Shinwell Medical Practice,Shinwell Medical Practice,Fourth Street,off Blackhills Road,"Horden, Co Durham",,SR8 4LD,54.7637519836,-1.312846899,0191 5863859,audrey.heatlie@nhs.net,http://www.shinwellmedicalgroup.co.uk,0191 5803859
3324,A83057,GP,Visible,True,True,Peterlee Health Centre,Shinwell Medical Group,Suite 4,St Cuthbert's Way,"Peterlee, Co Durham",,SR8 1AD,54.7582969666,-1.3355956078,0191 5863859,audrey.heatlie@nhs.net,http://www.shinwellmedicalgroup.co.uk,0191 5860748
3325,A83060,GP,Visible,True,False,Pinfold Medical Practice,Pinfold Lane,Butterknowle,Bishop Auckland,County Durham,,DL13 5NX,54.6265449524,-1.8359425068,01388 718230,,,01388 718645
3326,A83061,GP,Visible,True,False,Drs Neville & Waldin,Main Road,Gainford,Darlington,County Durham,,DL2 3BE,54.5462493896,-1.7311013937,01325 730 204,annejohnson@gp-a83061.nhs.uk,,01325 730 204
3327,A83066,GP,Visible,True,True,Dene Valley Surgery,23 Spencer Street,Eldon Lane,Bishop Auckland,County Durham,,DL14 8TL,54.6457481384,-1.6482856274,01325 311300,jubileemedical@nhs.net,www.jubileemedical.com,01325 328900
3328,A83066,GP,Visible,True,True,Cobblers Hall Surgery,Carer's Way,Burn Lane,Newton Aycliffe,County Durham,,DL5 4SE,54.6297302246,-1.5803295374,01325 311300,jubileemedical@nhs.net,www.jubileemedical.com,01325 328900
3329,A83066,GP,Visible,True,True,Burke Street Surgery,9 Burke Street,,Shildon,County Durham,England - Uk,DL4 1AA,54.6319694519,-1.6517968178,01325 311300,jubileeemedical@nhs.net,www.jubileemedical.com,01325 328900
3332,A83070,GP,Visible,True,True,MARSHALL & PARTNERS - Middleton Lane,Middleton Lane,Middleton St George,Darlington,County Durham,,DL2 1AA,54.5125923157,-1.4672783613,01325 332022,felix.house@nhs.net,http://www.felixhousesurgery.co.uk,01325 333 626
3333,A83071,GP,Visible,True,True,Dusad & Partners,"New Seaham Medical Group, Seaham Primary Care Centre,",St Johns Square,,Seaham,Durham,SR7 7JE,54.8358078003,-1.335460186,0191 581 7661,karen.soks@nhs.net,,0191 513 0548
3334,A83071,GP,Visible,True,True,Dusad & Partners,East Dene Road,,Seaham,County Durham,,SR7 8DY,54.8348083496,-1.3652906418,0191 5817661,ray.tattersall@nhs.net,,0191 5130548
3335,A83072,GP,Visible,True,True,Park House Surgery,Lanchester Medical Centre,Durham Road,Lanchester,Durham,Durham,DH7 0LP,54.819858551,-1.7396870852,01207 520 877,,,01207 521 997
3336,A83073,GP,Visible,True,True,Lambert & Brunt,Laxey Street,Stanley,Co Durham,,,DH9 8AA,54.8694000244,-1.7002556324,01207 214673,audrey.allan@gp-a83073.nhs.uk,,01207 214674
3337,A83073,GP,Visible,True,True,Drs Lambert & Brunt,West Road Surgery,9 West Road,Stanley,Co Durham,,DH9 7XT,54.8576507568,-1.7375721931,01207 214 925,audrey.allan@gp-a83073.nhs.uk,,01207 214 926
3338,A83074,GP,Visible,True,True,Peaseway Medical Centre,2 Pease Way,,Newton Aycliffe,Co Durham,,DL5 5NH,54.6185836792,-1.5764642954,01325 528 000,mikespence@nhs.net,http://www.peaseway.com,01325 304396
3339,A83075,GP,Visible,True,False,Dr Reddy,The Avenue,Seaham,Co Durham,,,SR7 8LF,54.8368492126,-1.3488795757,0191 5130202,patricia.jobson@gp_a83075.nhs.uk,,0191 5816764
3340,A83076,GP,Visible,True,True,Dr Levick and Partners,Front Street,,,"Dipton, County Durham",,DH9 9DA,54.8776779175,-1.761583209,01207 571 222,,,01207 570 070
3341,A83603,GP,Visible,True,False,Dr. Roy,Oxford Road,,Spennymoor,County Durham,,DL16 6YQ,54.7010002136,-1.5998445749,01388 810081,,,01388 815100
3342,A83610,GP,Visible,True,True,"The Medical Centre, Wingate ",Front Street West,,Wingate,County Durham,,TS28 5PZ,54.7255363464,-1.3788299561,01429 838 203,hcollins3@nhs.net,,01429 836 928
3343,A83616,GP,Visible,True,True,Peterlee Health Centre (Dr Ramakrishna Gupta),Bede Way,,Peterlee,County Durham,,SR8 1AD,54.7582969666,-1.3355956078,0191 586 5029,,,
3344,A83616,GP,Visible,True,True,Shotton Medical Practice,Bevan Grove,,Shotton Colliery,Co. Durham,England - Uk,DH6 2LQ,54.7607307434,-1.3881282806,0191 526 1643,,,0191 517 2746
3345,A83616,GP,Visible,True,True,Easington Medical Centre,School Street,Easington Colliery,Durham,,England - Uk,SR8 3PR,54.7887687683,-1.3301666975,0191 527 0529,,,0191 527 3456
3346,A83617,GP,Visible,True,True,Dr Nagi ,3 Croft View,Lanchester,Durham,Co Durham,,DH7 0HY,54.8236656189,-1.7465393543,01207 521 906,louise.young@gp-a83617.nhs.uk,,
3347,A83617,GP,Visible,True,True,Browney House Surgery,Front Street,,Langley Park,County Durham,,DH7 9YT,54.8003082275,-1.6706519127,0191 373 2860,louise.young3@nhs.net,,0191 373 0685
3348,A83618,GP,Visible,True,True,Oakfields Health Centre,Hamsterley Colliery,Newcastle Upon Tyne,Tyne and Wear,,,NE17 7SB,54.9036064148,-1.8164178133,01207 560206,,,01207 560172
3349,A83619,GP,Visible,True,True,Dr Mansour,56 Front Street,Haswell,County Durham,,,DH6 2BL,54.7834663391,-1.4169083834,0191 526 3200,dr.mansour@gp-a83619.nhs.uk,,
3350,A83619,GP,Visible,True,True,Dr Mansour,Suite No. 2,Bede Way,Peterlee,County Durham,,SR8 1AD,54.7582969666,-1.3355956078,0191 586 7414,dr.mansour@gp-a83619.nhs.uk,,
3351,A83619,GP,Visible,True,True,Southdene Medical Centre,56 Front Street,Shotton Colliery,Durham,,,DH6 2LT,54.7632293701,-1.3862257004,0191 526 5818,dr.mansour@gp-a83619.nhs.uk,,0191 526 7740
3352,A83641,GP,Visible,True,True,Parkgate Health Centre,Park Place,Darlington,Co Durham,,,DL1 5LW,54.5233306885,-1.5485899448,01325 735 000,,,01325 735 001
3353,A83622,GP,Visible,True,True,The Haven Surgery,The Haven,Burnhope,Co Durham,,,DH7 0BD,54.8251075745,-1.7122570276,01207 214 707,,,
3354,A83626,GP,Visible,True,False,Dr Said,Copeland Lane,Evenwood,Bishop Auckland,Co Durham,Durham,DL14 9SU,54.6201248169,-1.7585986853,1388832236,,,1388830971
3355,A83627,GP,Visible,True,True,South Hetton Health Centre,Front Street,,South Hetton,Durham,Durham,DH6 2TH,54.8002929688,-1.4105997086,0191 5171055,reception@silverdalefamilypractice.co.uk,http://www.silverdalefamilypractice.co.uk,0191 5260001
3356,A83630,GP,Visible,True,True,Brandon Lane Surgery,Brandon Lane Surgery,Stack Garth,Brandon,Co. Durham,,DH7 8SJ,54.7540550232,-1.639113307,0191 3782099,,,0191 3780898
3357,A83632,GP,Visible,True,False,Craghead Medical Centre,The Middles,Craghead,Stanley,County Durham,England - Uk,DH9 6AN,54.8571510315,-1.6793329716,01207 290032,,,01207 237916
3358,A83634,GP,Visible,True,True,West Cornforth Medical Centre,Reading Street,West Cornforth,Ferryhill,Co Durham,,DL17 9LH,54.7032546997,-1.522759676,01740 656 578,linda.mccann@gp-a83634.nhs.uk,,01740 653 928
3359,A83635,GP,Visible,True,True,Bowburn Medical Centre,Bow Street,Bowburn,Durham,,England - Uk,DH6 5AL,54.7362518311,-1.527295351,0191 377 2495,,,0191 377 3379
3360,A83636,GP,Visible,True,True,Leadgate Surgery,George Ewen House,Watling Street,"Leadgate, Consett",Co Durham,,DH8 6DP,54.8605651855,-1.8059731722,01207 583555,helen.arden@gp-a83636.nhs.uk,,01207 215150
3361,A83637,GP,Visible,True,True,Middle Chare medical Group - Gardiner Crescent Surgery,Gardiner Crescent Surgery,21 Gardiner Crescent,Pelton Fell,Chester le street,Durham,DH2 2NJ,54.8584060669,-1.6103693247,0191 5947654,,,0191 3874644
3362,A83637,GP,Visible,True,True,Middle Chare Medical Group - Lavender Centre,Lavender Centre (upstairs),Pelton,Chester-le-Street,Co. Durham,,DH2 1HS,54.8735961914,-1.6035968065,0191 5947654,,,
3363,A83638,GP,Visible,True,True,Dr K S Baliga,Church Street,,Shildon,County Durham,,DL4 1DU,54.6336021423,-1.6477706432,01388 772 829,surendra.baliga@gp.a83638.nhs.uk,,01388 770 426
3364,A83644,GP,Visible,True,True,Dr Le Dune and Partners,Durham Road,Annfield Plain,Stanley,County Durham,England - Uk,DH9 7TD,54.8567657471,-1.7354750633,01207 215 005,,,01207 215 003
3366,A84002,GP,Visible,True,False,The Rothbury Practice,3 Market Place,Rothbury,Morpeth,Northumberland,,NE65 7UW,55.3091011047,-1.9116414785,01669 620339,norccg.rothburypractice@nhs.net,,01669 620583
3367,A84002,GP,Visible,True,False,The Rothbury Practice,Longframlington,,Morpeth,Northumberland,,NE65 8AD,55.3028488159,-1.7933487892,01665 570311,rothburypractice.a84002@nhs.net,,01665 570311
3368,A84003,GP,Visible,True,False,Lintonville Medical Group,Lintonville Terrace,,Ashington,Northumberland,,NE63 9UT,55.1838417053,-1.5701481104,01670 812772,norccg.lintonville@nhs.net,http://www.lintonville.co.uk,01670 521573
3369,A84005,GP,Visible,True,True,Bedlingtonshire Medical Group,Glebe Road,Bedlington,Northumberland,,,NE22 6JX,55.1323204041,-1.5985877514,01670 822695,admin@gp-a84005.nhs.uk,,01670 531860
3370,A84006,GP,Visible,True,False,The Bondgate Practice - Longhoughton,Longhoughton Surgery ,4-6 Portal Place,Longhoughton,Alnwick,Northd,NE66 3JN,55.4343833923,-1.6192198992,01665 577380,,,01665 577380
3371,A84006,GP,Visible,True,False,The Bondgate Practice - Embleton,Embleton Surgery,Westview,Embleton,Alnwick,Northd,NE66 3XZ,55.498790741,-1.6402060986,01665 576635,,,01665 576635
3372,A84006,GP,Visible,True,False,The Bondgate Practice - Alnwick,The Bondgate Surgery,Infirmary Close,Alnwick,Nothumberland,,NE66 2NL,55.4100761414,-1.6966536045,01665 510 888,,,01665 510581
3373,A84006,GP,Visible,True,False,The Bondgate Practice - Seahouses,Seahouses Health Centre,James Street,Seahouses,Northumberland,,NE68 7XZ,55.5787277222,-1.6536085606,01665 720294,,,01665 720294
3374,A84007,GP,Visible,True,False,Dr Adams & Partners,Main Road,Dinnington,Newcastle Upon Tyne,,England - Uk,NE13 7JW,55.0513114929,-1.6733237505,01661 824 597,,http://www.pontelandmedicalgroup.co.uk,
3375,A84007,GP,Visible,True,False,Ponteland Medical Group,Ponteland Primary Care Centre,Meadowfield,Ponteland,Newcastle Upon Tyne,,NE20 9SD,55.0518074036,-1.7496725321,01661 825 513,pontelandmedicalgroupa84007@nhs.net,http://www.pontelandmedicalgroup.co.uk,01661 867 631
3376,A84007,GP,Visible,True,False,Darras Hall Surgery,"The Surgery, Broadway",Darras Hall,Ponteland,Newcastle Upon Tyne,England - Uk,NE20 9PW,55.0365333557,-1.7648038864,01661 825 513,,http://www.pontelandmedicalgroup.co.uk,
3377,A84008,GP,Visible,True,False,Seahouses Surgery Belford Medical Practice,James Street,,Seahouses,Northumberland,,NE68 7YN,55.5766639709,-1.6545466185,01665 720917,belford.a84008@nhs.net,www.belfordmedicalpractice.net,1665721021
3378,A84008,GP,Visible,True,False,Belford Medical Practice,Croftfield,,Belford,Northumberland,,NE70 7ER,55.5959587097,-1.8259299994,01668 213738,belford.a84008@nhs.net,www.belfordmedicalpractice.net,01668 213072
3379,A84009,GP,Visible,True,False,Waterloo Medical Group - Newsham Surgery,61 Newcastle Road,Newsham,Blyth,Northumberland,,NE24 4AW,55.1092453003,-1.5300056934,01670 355440,norccg.waterloo-a84009@nhs.net,http://www.waterloomedical-blyth.nhs.uk,01670 354629
3380,A84009,GP,Visible,True,False,Waterloo Medical Group - Blyth Health Centre,Blyth Health Centre,Thoroton Street,Blyth,Northd,,NE24 1DX,55.1278762817,-1.5149201155,01670 355080,norccg.waterloo-a84009@nhs.net,http://www.waterloomedical-blyth.nhs.uk,01670 369818
3381,A84011,GP,Visible,True,False,White Medical Group (Stamfordham),12 Grange Road,Stamfordham,Newcastle Upon Tyne,Tyne and Wear,,NE18 0PF,55.0413780212,-1.8764891624,01661 886587,admin@gp-a84011.nhs.uk,www.whitemedicalgroup.gpsurgery.net,01661 886688
3382,A84011,GP,Visible,True,False,White Medical Group (Wylam),Jackson Road,Wylam,Northumberland,,,NE41 8EL,54.9781265259,-1.8193750381,01661 852515,admin@gp-a84011.nhs.uk,www.whitemedicalgroup.gpsurgery.net,01661 852086
3383,A84011,GP,Visible,True,False,White Medical Group (Ponteland),Meadowfield,Ponteland,Newcastle Upon Tyne,,,NE20 9SD,55.0518074036,-1.7496725321,01661 822222,admin@gp-a84011.nhs.uk,www.whitemedicalgroup.gpsurgery.net,01661 867626
3384,A84013,GP,Visible,True,False,Dr M S Harrison & Partners,Miner's Institute,Ridley  Terrace,Cambois,Blyth,,NE24 1QS,55.1449356079,-1.520690918,01670 823 917,gables.a84013@nhs.net,www.gablesmedicalgroup.nhs.uk,01670 820 841
3385,A84013,GP,Visible,True,False,The Gables Medical Group,The Gables Health Centre,26 St Johns Road,Bedlington,Northumberland,,NE22 7DU,55.1408233643,-1.5644137859,01670 829 889,gables.a84013@nhs.net,www.gablesmedicalgroup.nhs.uk,01670 820 841
3386,A84014,GP,Visible,True,False,Marine Medical Group,Blyth Health Centre,Thoroton Street,,Blyth,,NE24 1DX,55.1278762817,-1.5149201155,01670 544125,,http://www.marinemedical-blyth.nhs.uk/,01670 354511
3387,A84015,GP,Visible,True,False,Dr M S Rasoul & Partners,14 Laburnum Terrace,,Ashington,Northumberland,,NE63 0XX,55.1819915771,-1.5681580305,01670 813 376,admin@gp-a84015.nhs.uk,,01670 854 346
3388,A84016,GP,Visible,True,True,Prudhoe Medical Group,Prudhoe Medical Group,Kepwell Bank Top,,Prudhoe,Northumberland,NE42 5PW,54.9619522095,-1.8533217907,01661 839370,prudhoemedicalgroup@nhs.net,http://www.prudhoemedicalgroup.com,01661 836338
3389,A84018,GP,Visible,True,False,Corbridge Medical Group,Corbridge Health Centre,Newcastle Road,Corbridge,Northumberland,,NE45 5LG,54.9739189148,-2.0126550198,01434 632011,admin@gp-a84018.nhs.uk,www.corbridge.gpsurgery.net,01434 633878
3390,A84020,GP,Visible,True,True,GuidePost Medical Group,,North Parade,,Choppington,Northumberland,NE62 5RA,55.1575889587,-1.6040781736,01670 822071,admin@gp-a84020.nhs.uk,http://www.guidepostmedicalgroup.nhs.uk/,01670 531060
3391,A84021,GP,Visible,True,True,Infirmary Drive Medical Group,The Consulting Rooms,Infirmary Drive,Alnwick,Northd,,NE66 2NR,55.4104652405,-1.6977245808,01665 602388,,www.infirmarydrive.co.uk,01665 604712
3392,A84022,GP,Visible,True,True,Amble Health Centre,Percy Drive,Amble,Morpeth, Northumberland,Northd,NE65 0HD,55.332611084,-1.5804886818,01665 710481,admin@gp-a84022.nhs.uk,,01665 513009
3393,A84022,GP,Visible,True,True,Broomhill Health Centre,Hadston Road,South Broomhill,Morpeth,Northumberland,,NE65 9SF,55.2937431335,-1.6029452085,01670 760229,admin@gp-a84022.nhs.uk,,01670 761094
3394,A84024,GP,Visible,True,True,Burn Brae Medical Group,Hexham Primary Care Centre,Corbridge Road,Hexham,Northumberland,,NE46 1QJ,54.9695510864,-2.0954728127,01434 603627,,www.burnbraemedicalgroup.nhs.uk,
3395,A84025,GP,Visible,True,False,Dr D Leith & Partners,Forum Way,,Cramlington,Northumberland,,NE23 6QN,55.0844841003,-1.5915002823,01670 713911,admin@gp-a84025.nhs.uk,,01670 735958
3396,A84026,GP,Visible,True,True,Dr J M Watson & Partners,Well Close Square,,Berwick Upon Tweed,Northumberland,,TD15 1LL,55.7723999023,-2.0061910152,01289 333240,admin@gp-a84026.nhs.uk,http://www.wellclosemedicalgroup.com/,01289 306528
3397,A84027,GP,Visible,True,True,Bellingham Practice,Health Centre,Bellingham,Hexham,Northd,,NE48 2HE,55.1438331604,-2.2579667568,01434 220203,admin@gp-a84027.nhs.uk,www.thebellinghampractice.co.uk,01434 220798
3398,A84028,GP,Visible,True,False,Seaton Park Medical Group - Norham Road Branch,Norham Road,,Ashington,Northumberland,,NE63 0NG,55.1709060669,-1.5609933138,01670 811 811,admin@gp-a84028.nhs.uk,www.seatonparkmedicalgroup.co.uk,
3399,A84028,GP,Visible,True,False,Seaton Park Medical Group - Newbiggin Branch,Buteland Terrace,,Newbiggin By The Sea,Northumberland,England - Uk,NE64 6NS,55.1831321716,-1.5171705484,01670 811 811,admin@gp-a84028.nhs.uk,www.seatonparkmedicalgroup.co.uk,01670 816 946
3400,A84028,GP,Visible,True,False,Seaton Park Medical Group - Nursery Park Branch,Nursery Park,,Ashington,Northumberland,,NE63 0HP,55.1697692871,-1.5604093075,01670 811 811,admin@gp-a84028.nhs.uk,www.seatonparkmedicalgroup.co.uk,01670 857 948
3401,A84029,GP,Visible,True,False,Widdrington Surgery,Grange Road,Widdrington,Morpeth,Northumberland,,NE61 5LX,55.2402229309,-1.620557189,01670 790229,admin@gp-a84029.nhs.uk,http://www.widdringtonsurgery.nhs.uk,01670 791312
3402,A84030,GP,Visible,True,False,Village Surgery,Dudley Lane,,Cramlington,Northumberland,,NE23 6US,55.0846748352,-1.5870651007,01670 712821,village@gp-a84030.nhs.uk,www.the-village-surgery.co.uk,01670 730837
3403,A84031,GP,Visible,True,False,Greystoke Surgery,Morpeth NHS Centre,The Mount,,Morpeth,Northumberland,NE61 1JX,55.1715164185,-1.6842474937,01670 511393,ga84031@nhs.net,,01670 503282
3404,A84032,GP,Visible,True,False,Cheviot Medical Group,Cheviot Primary Care Centre,Padgepool Place,Wooler,Northumberland,Northumberland,NE71 6BL,55.5465278625,-2.0184047222,01668 281 575,norccg.admin-a84032@nhs.net,https://www.cheviotmedicalgroup.co.uk,01668 282 442
3405,A84033,GP,Visible,True,True,The Sele Medical Practice,Hexham Primary Care Centre,Corbridge Road,Hexham,Northumberland,,NE46 1QJ,54.9703712463,-2.0945692062,01434 602237,norccg.sele-admin@nhs.net,http://www.selemedicalpractice.co.uk,01434 613063
3406,A84034,GP,Visible,True,False,Haltwhistle Medical Group,Greencroft Avenue,,Haltwhistle,Northumberland,,NE49 9AP,54.970085144,-2.4648094177,01434 320077,,www.haltwhistlemedicalgroup.co.uk,01434 320674
3408,A84035,GP,Visible,True,False,Riversdale Surgery,51 Woodcroft Road,51 Woodcroft Road,,Wylam,Northumberland,NE41 8DH,54.9754447937,-1.8233709335,01661 852208,,http://www.riversdalesurgery.co.uk,01661 853779
3409,A84035,GP,Visible,True,False,Riversdale Surgery,Oaklands Medical Centre,Oaklands Medical Centre,"Front Street, Prudhoe",Prudhoe,Northumberland,NE42 5DQ,54.9613685608,-1.8455934525,01661 832 287,,,
3410,A84036,GP,Visible,True,False,Wellway Medical Pegswood,West View,Pegswood,Morpeth,Northumberland,,NE61 6TB,55.1784133911,-1.6518417597,01670 515326,norccg.wellwayenquiries@nhs.net,http://www.wellway.co.uk,01670 500191
3411,A84036,GP,Visible,True,False,Wellway Medical Morpeth,The Surgery,Wellway,Morpeth,Northumberland,,NE61 1BJ,55.1693763733,-1.6896753311,01670 502333,norccg.wellwayenquiries@nhs.net,http://www.wellway.co.uk,01670 511931
3412,A84036,GP,Visible,True,False,Wellway Medical Newbiggin,The Health Centre,Buteland Terrace,Newbiggin by the Sea,Northumberland,,NE64 6NS,55.1831321716,-1.5171705484,01670 816921,norccg.wellwayenquiries@nhs.net,http://www.wellway.co.uk,01670 818797
3413,A84036,GP,Visible,True,False,Wellway Medical Lynemouth,Albion Terrace,Lynemouth,Morpeth,Northumberland,,NE61 5TB,55.2143554688,-1.5451763868,01670 860212,norccg.wellwayenquiries@nhs.net,http://www.wellway.co.uk,01670 860669
3414,A84037,GP,Visible,True,False,Netherfield House Surgery,Netherfield House,Station Road,Seghill,Cramlington,Northd,NE23 7EF,55.0636291504,-1.548404932,0191 237 0643,admin@gp-a84037.nhs.uk,,0191 237 1091
3415,A84038,GP,Visible,True,False,Forum Family Practice,The Health Centre,Forum Way,Cramlington,Northumberland,,NE23 6QN,55.0844841003,-1.5915002823,01670 713021,admin@gp-a84038.nhs.uk,http://www.forumfamilypractice.co.uk,01670 735880
3416,A84039,GP,Visible,True,False,Gas House Lane Surgery,Gas House Lane Surgery,Morpeth NHS Centre,The Mount,Morpeth,Northumberland,NE61 1JX,55.1715202332,-1.6839284897,01670 513657,gashouse.a84039@nhs.net,http://www.gashouselane.gpsurgery.net,01670 513201
3417,A84040,GP,Visible,True,False,Dr N K Keep & Partners - Wark,The Surgery,Wark,Hexham,Northumberland,,NE48 3LS,55.0854034424,-2.2194914818,01434 230654,admin@gp-a84040.nhs.uk,,01434 230059
3418,A84040,GP,Visible,True,False,Dr N K Keep & Partners - Humshaugh Surgery,The Surgery,1 East Lea,"Humshaugh, Hexham",Northumberland,,NE46 4BU,55.0360488892,-2.125328064,01434 681281,admin@gp-a84040.nhs.uk,,01434 681579
3419,A84042,GP,Visible,True,False,Dr N R Winslow & Partner,Scots Gap,,Morpeth,Northumberland,,NE61 4EG,55.1727600098,-1.9405473471,01670 774216,admin@gp-a84042.nhs.uk,,01670 774386
3420,A84042,GP,Visible,True,False,Dr N R Winslow & Partner,16 Grange Road,,Stamfordham,Newcastle-Upon Tyne,,NE18 0PF,55.0413780212,-1.8764891624,01661 886 203,admin@gp-a84042.nhs.uk,,
3421,A84043,GP,Visible,True,False,Dr A P Dove & Partners,Westbourne Terrace,,Seaton Delaval,Northumberland,,NE25 0BE,55.0696792603,-1.5145591497,0191 237 5458,admin@gp-a84043.nhs.uk,,0191 210 6211
3422,A84043,GP,Visible,True,False,Dr A P Dove & Partners,Collywell Bay Road,Seaton Sluice,Whitley Bay,Tyne and Wear,,NE26 4QZ,55.0832061768,-1.4721002579,0191 298 0901,admin@gp-a84043.nhs.uk,,0191 237 4051
3423,A84043,GP,Visible,True,False,Brockwell Medical Group,Northumbrian Road,,Cramlington,Northumberland,,NE23 1XZ,55.0956001282,-1.5842260122,01670 737283,admin@gp-a84043.nhs.uk,http://www.brockwell.co.uk,01670 392701
3424,A84044,GP,Visible,True,False,Union Brae & Norham Practice - Norham Surgery,Pedwell Way,Norham,Berwick-upon-Tweed,Northumberland,,TD15 2LD,55.7198104858,-2.1626608372,01289 382265,admin@gp-a84044.nhs.uk,http://www.unionbrae.com,01289 382186
3425,A84044,GP,Visible,True,False,Union Brae & Norham Practice - Union Brae Surgery,Tweedmouth,,Berwick-upon-Tweed,,,TD15 2HB,55.7667198181,-2.0117843151,01289 330333,admin@gp-a84044.nhs.uk,http://www.unionbrae.com,01289 302556
3426,A84045,GP,Visible,True,False,Haydon Bridge and Allendale Medical Practice,North Bank,Haydon Bridge,Hexham,Northd,,NE47 6LA,54.9756851196,-2.2500126362,01434 684216,admin@gp-a84045.nhs.uk,http://www.haydonbridgesurgery.co.uk/,01434 684144
3427,A84046,GP,Visible,True,False,Ahmed,Civic Precinct,Forum Way,Cramlington,Northumberland,,NE23 6QN,55.0844841003,-1.5915002823,01670 714581,admin@gp-a84046.nhs.uk,,01670 730386
3428,A84047,GP,Visible,True,True,Branch End Surgery,Branch End Surgery,,Stocksfield,Northumberland,,NE43 7LL,54.9471435547,-1.8978534937,01661 842 626,sueshone@nhs.net,http://www.branchendsurgery.co.uk/,01661 844 392
3429,A84048,GP,Visible,True,False,Station Medical Group,Gatacre Street,,,Blyth,Northumberland,NE24 1HD,55.1287536621,-1.5141568184,01670 542630,admin@gp-a84048.nhs.uk,http://www.stationmedicalgroup-blyth.nhs.uk,01670 396517
3430,A84604,GP,Visible,True,True,Glendale Surgery,Cheviot Primary Care Centre,Padgepool Place,Wooler,Northd,,NE71 6BL,55.5465278625,-2.0184047222,01668 281740,nct-tr.glendaleadmin@nhs.net,www.glendalesurgery.nhs.uk,01668 281514
3431,A84609,GP,Visible,True,False,Dr Lees & Partner,Felton Surgery,"Middlle Farm, 51 Main Street",Felton,Northumberland,Northumberland,NE65 9PR,55.2985305786,-1.7112537622,01670 787353,,http://www.feltonsurgery.nhs.uk,01670 787353
3432,A84613,GP,Visible,True,False,Harbottle Surgery,The Village Hall,Harbottle,Morpeth,Northumberland,,NE65 7DG,55.3363761902,-2.1058139801,01669 650 280,admin@gp-a84613.nhs.uk,,01669 650 439
3433,A84614,GP,Visible,True,False,Dr S C Haywood,16a Adderlane Road,West Wylam,Prudhoe,Northumberland,,NE42 5HR,54.9626083374,-1.8457136154,01661 836 386,admin@gp-a84614.nhs.uk,,01661 831 353
3434,A84618,GP,Visible,True,False,Haydon Bridge and Allendale Medical Practice,The Health Centre,Allendale,Hexham,Northumberland,,NE47 9LG,54.8975601196,-2.2489979267,01434 683 280,admin@gp-a84045.nhs.uk,,01434 683 884
3435,A84619,GP,Visible,True,False,Dr P McDaid,Elsdon Avenue,Seaton Delaval,Whitley Bay,Tyne and Wear,,NE25 0EF,55.0714492798,-1.5282404423,0191 237 2299,admin.mcdaid@gp-a84004.nhs.uk,,0191 237 5419
3436,A85001,GP,Visible,True,False,Dr Finnerty & Partners,575 Durham Road,Low Fell,Gateshead,Tyne and Wear,,NE9 5EY,54.9350509644,-1.5989928246,0191 491 3322,,http://www.gasthealth.nhs.uk/gps/fell-tower-mc/,0191 491 5637
3437,A85002,GP,Visible,True,False,Dr Ranu & Partner,Sidney Grove,Bensham,Gateshead,Tyne and Wear,,NE8 2XB,54.9527931213,-1.6170378923,0191 477 6955,gccg.a85002@nhs.net,,0191 477 1554
3438,A85002,GP,Visible,True,False,Dr Ranu & Partner,406 Lobley Hill Road,,Gateshead,Tyne and Wear,,NE11 0BS,54.9401893616,-1.6334691048,0191 460 4380,harpal.ranu@gp-a85002.nhs.uk ,,
3439,A85003,GP,Visible,True,False,Drs Dawson and Imlah,"The Medical Centre,",The Grove,,Rowlands Gill,Tyne and Wear,NE39 1PW,54.9193611145,-1.7428810596,01207 542 136,,http://rowlandsgillmedicalcentre.nhs.uk/,01207 543 340
3440,A85003,GP,Visible,True,False,Drs Dawson and Imlah,"High Spen Branch Surgery, Bute Road South",High Spen,Rowlands Gill,Rowlands Gill,,NE39 2AP,54.9285125732,-1.7844557762,01207 544 422,,,
3441,A85004,GP,Visible,True,False,Dr Brumby & Partners,2 Longrigg,Leam Lane Estate,Felling,Gateshead,,NE10 8PH,54.9437332153,-1.5457214117,0191 469 2173,,,0191 495 0893
3442,A85005,GP,Visible,True,False,Oxford Terrace and Rawling Road Medical Group,Main site: Oxford Terrace Medical Group,Gateshead,Tyne and Wear,1 Oxford Terrace,,NE8 1RQ,54.9543304443,-1.6062648296,0191 477 2169,,http://www.otmg.co.uk,0191 477 5633
3444,A85006,GP,Visible,True,False,Dr Tasker & Partners,Glenpark Medical Centre,61 Ravensworth Road,Dunston,Gateshead,Tyne and Wear,NE11 9AD,54.953250885,-1.6401269436,0191 460 4300,,http://www.glenpark.info,0191 461 0106
3445,A85007,GP,Visible,True,False,Dr Bryson & Partners,123 Kells Lane,,Gateshead,,,NE9 5XY,54.9385108948,-1.5940573215,0191 487 2656,,http://www.fellcottagesurgery.nhs.uk,0191 491 0475
3446,A85008,GP,Visible,True,False,Birtley Medical Group,Birtley Medical Group,Durham Road,,Birtley,Durham,DH3 2QT,54.8919181824,-1.5763939619,0191 4921022,,http://www.birtleymedicalgroup.nhs.uk/,0191 410 9672
3448,A85009,GP,Visible,True,False,Crowhall Medical Group,Stephenson Terrace,Felling,Gateshead,Tyne and Wear,,NE10 9QG,54.9479751587,-1.5683268309,0191 4699391,,,0191 438 4661
3449,A85010,GP,Visible,True,False,Chainbridge Medical Partnership,,Shibdon Road,Blaydon,Tyne and Wear,,NE21 5AE,54.964099884,-1.7124836445,0844 477 2550,,http://www.chainbridge.nhs.uk,0191 461 5651
3450,A85011,GP,Visible,True,False,St Albans Medical Group,Felling Health Centre,Stephenson Terrace,Gateshead,Tyne and Wear,,NE10 9QG,54.9479751587,-1.5683268309,0191 469 2316,,http://stalbansmedicalgroup.nhs.uk,0191 495 0059
3451,A85011,GP,Visible,True,False,St Albans Medical Group,Bede Centre,Old Fold Road,Gateshead,,England - Uk,NE10 0DJ,54.9571609497,-1.5817517042,0191 469 2316,,,
3452,A85012,GP,Visible,True,False,Dr Imam & Dr Khan,Jackson Street,,Gateshead,Tyne and Wear,,NE8 1HR,54.9617614746,-1.6029750109,0191 477 2033,,,0191 478 2083
3453,A85013,GP,Visible,True,False,Millennium Family Practice,Trinity Square Health Centre,24 West Street,Gateshead,Tyne and Wear,,NE8 1AD,54.9627227783,-1.6034497023,0191 478 3678,,,0191 477 1211
3454,A85014,GP,Visible,True,False,Crawcrook Medical Centre,Pattinson Drive,Crawcook,Ryton,Tyne and Wear,,NE40 4US,54.9657096863,-1.7874587774,0191 413 5473,,,0191 413 8098
3455,A85014,GP,Visible,True,False,Dr Chapman & Partners,Greenside Community Centre,Greenside Road,Greenside,Ryton,Tyne and Wear,NE40 4AA,54.9569282532,-1.782102108,0191 413 2406,,http://crawcrookmedicalcentre.nhs.uk/,
3457,A85016,GP,Visible,True,False,Dr Kaura & Partners,Wrekenton Health Centre,Springwell Road,Gateshead,Tyne and Wear,,NE9 7AD,54.9255561829,-1.5713597536,0191 487 6129,,,0191 487 3136
3458,A85017,GP,Visible,True,False,Bewick Road Surgery,10 Bewick Road,,Gateshead,Gateshead,,NE8 4DP,54.9564208984,-1.6018564701,0191 477 2296,gccg.a85017@nhs.net,http://www.bewickroadsurgery.co.uk,0191 477 2304
3459,A85018,GP,Visible,True,False,Oldwell Surgery,10 Front Street,Winlaton,Blaydon-on-Tyne,Tyne and Wear,,NE21 4RD,54.95520401,-1.723524332,0191 500 2023,,http://www.oldwellsurgery.co.uk,0191 499 5137
3460,A85019,GP,Visible,True,False,Central Gateshead Medical Group,Prince Consort Road,,Gateshead,Tyne and Wear,,NE8 1NB,54.9563026428,-1.6042935848,0191 477 2243,,http://www.centralgatesheadmedicalgroup.co.uk,0191 478 6728
3461,A85020,GP,Visible,True,False,The Whickham Practice,Whickham Cottage Medical Centre,Rectory Lane,Whickham,Newcastle Upon Tyne,Tyne and Wear,NE16 4PD,54.9453926086,-1.6772891283,0191 488 5555,,http://www.whickhampractice.nhs.uk/,0191 496 0424
3462,A85021,GP,Visible,True,False,Dr Kumar,Second Street,,Gateshead,Tyne and Wear,,NE8 2UR,54.9546089172,-1.6148813963,0191 477 2430,,,0191 478 6823
3463,A85023,GP,Visible,True,False,Teams Medical Practice,Watson Street,Gateshead,Tyne and Wear,,,NE8 2PQ,54.9550361633,-1.6248084307,0191 460 4239,,http://www.teamsmedicalpractice.nhs.uk,0191 460 1523
3464,A85024,GP,Visible,True,False,Dr M S Hassan,Primary Healthcare Centre,South Road,Chopwell,Newcastle upon Tyne,,NE17 7BU,54.9197807312,-1.8133957386,01207 561 736,chopwell.medicalpractice@nhs.net,http://www.chopwellmedicalpractice.nhs.uk,01207 563 610
3466,A85026,GP,Visible,True,False,Beacon View Medical Centre ,Beacon Lough Road,Beacon Lough,Gateshead,Tyne and Wear,,NE9 6YS,54.9328651428,-1.5853122473,0191 482 4000,,www.beaconviewmedicalcentre.co.uk,0191 491 4107
3468,A85605,GP,Visible,True,False,Dr S M Hilton ,7 Elvaston Road,,Ryton,Tyne and Wear,,NE40 3NT,54.9764289856,-1.7620614767,0191 413 3459,,,0191 413 3580
3469,A85609,GP,Visible,True,False,Dr N Muthu Krishnan & Partners,108 Rawling Road,,Gateshead,Tyne and Wear,,NE8 4QR,54.9513130188,-1.615115881,0191 420 3255,,,0191 420 3253
3470,A85611,GP,Visible,True,False,Pelaw Medical Practice,7-8 Croxdale Terrace,,Gateshead,Tyne and Wear,,NE10 0RR,54.9547843933,-1.5404126644,0191 469 2337,,,0191 438 6132
3471,A85614,GP,Visible,True,False,Bridges Medical Practice,Trinity Square Health Centre,24 West Street,,Gateshead,Tyne and Wear,NE8 1AD,54.9634513855,-1.6039288044,0191 300 9889,gccg.bridgesmp@nhs.net,http://www.bridgesmedicalpractice.co.uk,0191 478 3501
3472,A85616,GP,Visible,True,False,Hollyhurst Medical Centre,8 Front Street,,Blaydon On Tyne,Blaydon-On-Tyne,,NE21 4RD,54.95520401,-1.723524332,0191 499 0966,,,0191 414 2891
3473,A85617,GP,Visible,True,False,"Drs Hunt, Murrell & Mather",8 Dewhurst Terrace,Sunniside,Newcastle Upon Tyne,Tyne and Wear,,NE16 5LP,54.9229850769,-1.675049901,0191 4883200,alan.hunt@gp-a85617.nhs.uk,,0191 496 5900
3474,A85620,GP,Visible,True,False,Grange Road Medical Practice,Grange Road,,Ryton,Tyne and Wear,,NE40 3LT,54.9723968506,-1.7634288073,0191 413 1399,,,0191 413 1561
3475,A86003,GP,Visible,True,True,Saville Medical Group (Saville Place),7 Saville Place,,Newcastle Upon Tyne,,,NE1 8DQ,54.9761238098,-1.6095825434,0191 232 4274,,http://www.savillemed.co.uk,0191 233 1050
3476,A86003,GP,Visible,True,True,Saville Medical Group (Newbiggin Hall),285 Trevelyan Drive,Newbiggin Hall Estate,Newcastle Upon Tyne,,,NE5 4BP,55.0059928894,-1.6832915545,0191 286 9240,,http://www.savillemed.co.uk,0191 271 5710
3477,A86004,GP,Visible,True,False,Dr Kelliher & Partners,501 Westgate Road,,Newcastle Upon Tyne,,,NE4 8AY,54.9740791321,-1.6462209225,0191 226 0226,,http://www.prospectmedicalgroup.nhs.uk,0191 226 6496
3478,A86005,GP,Visible,True,True,Dr Morrison & Partners,31 West Farm Avenue,,Newcastle Upon Tyne,Tyne and Wear,,NE12 8LS,55.012046814,-1.5840269327,0191 266 2215,,http://www.westfarmsurgery.com,0191 266 4028
3479,A86006,GP,Visible,True,True,Dr Burdon & Partners,Roseworth Surgery,27-29 Roseworth Avenue,Gosforth,Newcastle Upon Tyne,Tyne and Wear,NE3 1NB,55.0009155273,-1.6189812422,0191 213 2392,roseworthsurgery@nhs.net,http://www.roseworthsurgery.co.uk,0191 284 4010
3480,A86007,GP,Visible,True,True,Dr Conrad & Dr Rye. Welcome,"avenue medical practice, 5 osborne avenue, jesmond",,,Newcastle Upon Tyne,,NE2 1JQ,54.9880218506,-1.6032474041,0191 281 0041,wconrad@nhs.net,www.avenuemedicalpractice.co.uk,0191 281 1474
3481,A86008,GP,Visible,True,False,Dr Summers & Partners,Kingston Park Avenue,,Kingston Park,Newcastle Upon Tyne,,NE3 2HB,55.0128631592,-1.6683506966,0191 286 0022,,,0191 271 2544
3482,A86008,GP,Visible,True,False,Dr Summers & Partners,Fawdon Park Road,,Fawdon,Newcastle Upon Tyne,,NE3 2PE,55.013923645,-1.6453545094,0191 285 1763,,,0191 284 2374
3483,A86009,GP,Visible,True,True,Dr Hattaway & Partners,Molineux Street NHS Centre,"Molineux Street, Byker",Byker,Newcastle upon Tyne,,NE6 1SG,54.9775390625,-1.5834305286,1912755710,falconhouse.a86009@nhs.net,http://www.falconmedicalgroup.nhs.uk,1912755711
3484,A86010,GP,Visible,True,True,Dr Robson & Partners,"Biddlestone Health Group, Biddlestone Road",Heaton,,Newcastle Upon Tyne,,NE6 5SL,54.9894218445,-1.5767123699,0191 265 5755,biddlestone.a86010@nhs.net,http://www.biddlestonehealthgroup.co.uk,0191 275 5500
3485,A86011,GP,Visible,True,True,Dr Pearston & Partners,Walker Medical Group,"Walker Centre, Church Walk",Walker,Newcastle Upon Tyne,,NE6 3BS,54.9727554321,-1.5450503826,0191 262 0444,nneccg.wmg@nhs.net,http://www.walkermedical.nhs.uk,0191 259 8620
3486,A86012,GP,Visible,True,False,West Road Medical Centre,170 West Road,,,Newcastle Upon Tyne,,NE4 9QB,54.976184845,-1.6562480927,0191 2822890,west.road@nhs.net,http://www.westroadmedicalcentre.co.uk,0191 273 7279
3487,A86013,GP,Visible,True,False,Denton Park Medical Group,West Denton Way,,West Denton,Newcastle Upon Tyne,,NE5 2QW,54.993144989,-1.698553443,0191 229 5800,,,0191 229 5801
3488,A86015,GP,Visible,True,True,Holly Medical Group,17 Osborne Road,,Newcastle Upon Tyne,0,,NE2 2AH,54.9895706177,-1.6052949429,0191 281 4588,,http://www.hollymedicalgroup.co.uk,0191 281 9227
3489,A86016,GP,Visible,True,True,Dr Sprake & Partners,"Lane End Surgery, 2 Manor Walk",Newcastle Upon Tyne,Tyne and Wear,,,NE7 7XX,55.008934021,-1.5773044825,0191 266 5246,,http://www.laneendsurgery.co.uk,0191 266 6241
3490,A86017,GP,Visible,True,False,Hillsview Surgery,Hillsview Surgery,Hillsview Avenue,North Kenton,Newcastle upon Tyne,,NE3 3LB,55.0097084045,-1.6562268734,0191 286 0055,,,0191 271 1114
3491,A86017,GP,Visible,True,False,Cruddas Park Surgery,Cruddas Park Surgery,178 Westmorland Road,,Newcastle upon Tyne,,NE4 7JT,54.967666626,-1.6325782537,0191 226 1414,,,0191 273 0187
3492,A86018,GP,Visible,True,False,Dr Nielsen & Partners,1 The Grove,Gosforth,Newcastle Upon Tyne,,,NE3 1NU,55.0022239685,-1.619037509,0191 210 6680,,http://www.thegrovemedicalgroup.co.uk,0191 210 6682
3493,A86020,GP,Visible,True,False,Dr Browell and Partners,The Surgery,200 Osborne Road,Jesmond,Newcastle Upon Tyne,,NE2 3LD,54.9963684082,-1.6092298031,0191 281 4777,,http://www.thesurgery.org,0191 281 4309
3494,A86021,GP,Visible,True,True,Dr Price & Partners,142 Armstrong Road,,Newcastle Upon Tyne,,,NE4 8QB,54.9690513611,-1.6601828337,0191 273 4009,,,0191 272 3667
3495,A86021,GP,Visible,True,True,Dr Price & Partners,Chapel House Primary Care Centre,Hillhead Parkway,Chapel House,Newcastle Upon Tyne,,NE5 1LJ,54.9969596863,-1.7151719332,0191 273 4009,,,0191 238 0008
3496,A86022,GP,Visible,True,True,Dr Richardson & Partners,Chapel House Primary Care Centre,Hillhead Parkway,Chapel House,Newcastle upon Tyne,,NE5 1LJ,54.9969596863,-1.7151719332,0191 267 1773,,http://www.parkwaymedicalgroup.nhs.uk,0191 2380009
3497,A86023,GP,Visible,True,True,Benfield Park Medical Group,Benfield Park Healthcare & Diagnostic Centre,Benfield Road,,Newcastle upon Tyne,Tyne and Wear,NE6 4QD,54.9869728088,-1.559844017,0191 282 1010,,http://www.benfieldparkmedicalgroup.co.uk,0191 276 5731
3498,A86024,GP,Visible,True,True,Heaton Road Surgery,Heaton Road Surgery,17-19 Heaton Road,Heaton,Newcastle upon Tyne,,NE6 1SA,54.978263855,-1.5798295736,0191 265 5911,nneccg.heatonrdmanagement@nhs.net,http://www.heatonroadsurgery.nhs.net,0191 265 6974
3499,A86025,GP,Visible,True,False,Westerhope Medical Group,Springfield Road,,Blakelaw,Newcastle Upon Tyne,,NE5 3DS,54.9943199158,-1.6629391909,0191 2380018,,,
3500,A86025,GP,Visible,True,False,Westerhope Medical Group,452 Denton Road,Denton Burn,Newcastle Upon Tyne,,,NE15 7HD,54.9787864685,-1.6911770105,0191 241 1101,,,0191 241 1101
3501,A86025,GP,Visible,True,False,Westerhope Medical Group,377 Stamfordham Road,,Westerhope,Newcastle Upon Tyne,,NE5 2LH,54.9977607727,-1.6868420839,0191 243 7000,,,0191 243 7006
3502,A86026,GP,Visible,True,False,Dr Grainger & Partners,"Throckley Primary Care, Tillmouth Park Road",Throckley,Newcastle Upon Tyne,,,NE15 9PA,54.9929122925,-1.7588069439,0191 264 1014,throckleyreception.a8602@nhs.net,http://www.throckleyprimarycare.co.uk,0191 210 6702
3503,A86027,GP,Visible,True,False,Dr N D Lloyd Jones ,Newcastle Medical Centre,"within Boots the Chemist,","Hotspur Way, Eldon Square",Newcastle upon Tyne,,NE1 7XR,54.9750366211,-1.6150454283,0191 232 2973,newcastlemedical@nhs.net,http://www.newcastlemedical.co.uk,0191 211 3991
3504,A86028,GP,Visible,True,False,Regent Medical Centre,Ridley House,Henry Street,Gosforth,Newcastle upon Tyne,,NE3 1DQ,55.0090560913,-1.6226941347,0191 2236555,,http://www.regentmedicalcentre.co.uk,0191 2236549
3505,A86029,GP,Visible,True,True,Dr Gray & Partners,"Molineux Street NHS Centre, Molineux Street",Byker,,Newcastle upon Tyne,Tyne and Wear,NE6 1SG,54.9775390625,-1.5834305286,0191 275 5740,,http://www.thornfieldmedicalgroup.nhs.uk/,0191 275 5741
3506,A86029,GP,Visible,True,True,Dr Gray & Partners,"Shieldfield Health Centre, Stoddart Street",Shieldfield,Newcastle Upon Tyne,,,NE2 1AL,54.977897644,-1.599159956,0191 275 5740,,,0191 221 2183
3507,A86030,GP,Visible,True,True,Kenton Medical Centre (Betts Avenue Medical Centre),Kenton Medical Centre,Sherringham Avenue,Kenton,Newcastle Upon Tyne,Tyne and Wear,NE3 3QP,55.0059432983,-1.6542584896,0191 246 1546,bettsavenue@nhs.net,http://www.bettsavenue.nhs.uk/,0191 246 1550
3508,A86030,GP,Visible,True,True,Dr Black & Partners (Benwell),,2 Betts Avenue,Benwell,Newcastle Upon Tyne,Tyne and Wear,NE15 6TQ,54.9732894897,-1.6758314371,0191 274 2767,bettsavenue@nhs.net,http://www.bettsavenue.nhs.uk/,0191 274 0244
3509,A86031,GP,Visible,True,False,Dr Ashley & Partners,Fenham Hall Drive,,Fenham,Newcastle Upon Tyne,,NE4 9XD,54.984500885,-1.6603181362,0191 274 3724,,www.fenhamhallmedicalgroup.nhs.uk,0191 274 5674
3510,A86033,GP,Visible,True,False,Brunton Park Health Centre,Princes Road,,Brunton Park,Newcastle Upon Tyne,,NE3 5NF,55.0270576477,-1.6269364357,0191 236 3338,,http://www.bruntonparkhc.nhs.uk/,0191 217 0988
3511,A86035,GP,Visible,True,True,Dr Chaudhary,164 Great North Road,,Gosforth,Newcastle Upon Tyne,,NE3 5JP,55.0161323547,-1.6212359667,0191 213 5005,,http://www.broadwaysurgery.net,0191 213 3729
3512,A86036,GP,Visible,True,True,Dr Taylor & Partners,Church Road,,Gosforth,Newcastle Upon Tyne,,NE3 1TX,55.0072021484,-1.6189434528,0191 285 1119,gmmc@nhs.net,www.gosforthmemorial.nhs.uk,0191 213 2611
3513,A86038,GP,Visible,True,True,Dr Scott & Partners,Newburn Surgery,",4 Newburn Road",,Newcastle Upon Tyne,Tyne and Wear,NE15 8LX,54.9856719971,-1.7435830832,0191 229 0090,newburnsurgery.a86038@nhs.net,http://www.newburnsurgery.com,0191 267 4830
3514,A86040,GP,Visible,True,True,St Anthony's Health Centre,"St Anthonys Health Centre, St Anthonys Road",Walker,Newcastle Upon Tyne,,,NE6 2NN,54.9667396545,-1.5565049648,0191 219 6100,,,0191 219 6108
3515,A86041,GP,Visible,True,True,Dr Mears & Partners,2 Swarland Avenue,,Benton,Newcastle Upon Tyne,,NE7 7TD,55.0063323975,-1.5785982609,0191 215 0141,,,0191 266 1358
3516,A86601,GP,Visible,True,False,Denton Turret Medical Centre,10 Kenley Road,Slatyford,,Newcastle upon Tyne,Tyne and Wear,NE5 2UY,54.9839401245,-1.6863558292,0191 274 1840,,http://www.dentonturret.co.uk,0191 228 0990
3517,A86607,GP,Visible,True,False,Grainger Medical Group,Adelaide Terrace,,Newcastle Upon Tyne,,,NE4 8BE,54.970085144,-1.6565814018,0191 298 6060,agraingermg@nhs.net,,0191 219 5596
3518,A86607,GP,Visible,True,False,Grainger Medical Group,Meldon Street,,Newcastle Upon Tyne,,,NE4 6SH,54.9692573547,-1.6404525042,0191 298 6060,agraingermg@nhs.net,,0191 298 6084
3519,A87002,GP,Visible,True,False,Spring Terrace Health Centre,Spring Terrace,,North Shields,Tyne and Wear,,NE29 0HD,55.0106773376,-1.4513961077,0191 296 1588,spring.terrace@nhs.net,,0191 296 2901
3520,A87003,GP,Visible,True,False,Dr McColl & Partners,"The Portugal Place Health Centre, Portugal Place",Wallsend,Tyne and Wear,,,NE28 6RZ,54.9895629883,-1.5387340784,0191 262 5252,,http://www.pphc.info,0191 262 0241
3521,A87004,GP,Visible,True,False,Collingwood Surgery,Hawkeys Lane,,North Shields,Tyne and Wear,,NE29 0SF,55.0112228394,-1.456580162,0191 257 1779,,http://www.collingwoodsurgery.co.uk,0191 226 9909
3522,A87004,GP,Visible,True,False,Dr Tapsfield & Partners,Brookland Terrace,New York,North Shields,Tyne and Wear,,NE29 8EA,55.0249023438,-1.4879766703,0191 258 5316,,http://www.collingwoodsurgery.co.uk,0191 257 8231
3523,A87004,GP,Visible,True,False,Dr Tapsfield & Partners,Cecil Street,,North Shields,Tyne and Wear,,NE29 0DZ,55.0092124939,-1.451212883,0191 257 1191,,http://www.collingwoodsurgery.co.uk,0191 258 4961
3524,A87005,GP,Visible,True,False,Dr McManners & Partners,Whitley Road,,Whitley Bay,Tyne and Wear,,NE26 2ND,55.041519165,-1.4398331642,0191 253 1113,,www.whitleybayhealthcentre.nhs.uk,0191 297 0799
3525,A87006,GP,Visible,True,True,Dr Falconer & Partners,49 Marine Avenue,,,Whitley Bay,,NE26 1NA,55.0462722778,-1.451066494,0191 252 4527,,http://www.49marineavenuesurgery.nhs.uk,0191 251 3335
3526,A87007,GP,Visible,True,True,Forest Hall Medical Group,Station Road,,Forest Hall,Newcastle Upon Tyne,,NE12 9BQ,55.0203666687,-1.5675185919,0191 259 9666,,,0191 259 9696
3527,A87008,GP,Visible,True,False,Marine Avenue Medical Centre,Marine Avenue,,Whitley Bay,Tyne and Wear,,NE26 3LW,55.0440216064,-1.4568562508,0191 252 5317,,http://www.marineavenuemc-whitleybay.nhs.uk,0191 253 5150
3528,A87009,GP,Visible,True,False,Tynemouth,Priory Medical Group,Tynemouth,Tyne and Wear,,,NE30 4HD,55.0182991028,-1.4226716757,0191 257 0223,,www.priorymedical.org.uk,0191 259 5282
3529,A87009,GP,Visible,True,False,Hadrian Park,Priory Medical Group,Addington Drive,"Hadrian Park, Wallsend",Tyne and Wear,,NE28 9UX,55.0135955811,-1.5189113617,0191 257 0223,,http://www.priorymedical.org.uk,0191 236 9545
3530,A87009,GP,Visible,True,False,Priory Medical Group,19 Albion Road,North Shields,Tyne and Wear,,,NE29 0HT,55.0099639893,-1.4504677057,0191 257 0223,,www.priorymedical.org.uk,0191 270 8202
3532,A87011,GP,Visible,True,True,Beaumont Park Medical Group,Hepscott Drive,Beaumont Park,Whitley Bay,Tyne and Wear,,NE25 9XJ,55.0480766296,-1.4733604193,0191 251 4548,,http://www.beaumontparkmedicalgroup.co.uk,0191 251 5805
3533,A87012,GP,Visible,True,True,Dr May and Partners,Great North Road,,Wideopen,Newcastle Upon Tyne,,NE13 6LN,55.0482597351,-1.6245170832,0191 236 2115,,,0191 236 2116
3534,A87012,GP,Visible,True,True,Dr May and Partners,Market Street,Dudley,Cramlington,Northumberland,,NE23 7HR,55.0562095642,-1.5934317112,0191 250 0219,,,0191 250 2031
3535,A87013,GP,Visible,True,True,Dr Thornton & Partners,"Bewicke Medical Centre, 51 Tynemouth Road",Wallsend,Tyne and Wear,,,NE28 0AD,54.9966049194,-1.4997318983,0191 262 3036,,www.bewickemedicalcentre.nhs.uk/,0191 295 1663
3536,A87014,GP,Visible,True,False,Earsdon Park Medical Practice,"Shiremoor Resource Centre, Earsdon Road",Shiremoor,Newcastle Upon Tyne,,,NE27 0HJ,55.0381240845,-1.5061467886,0191 251 7139,,,0191 251 8936
3537,A87014,GP,Visible,True,False,Longbenton,Oxford Centre,West Farm Avenue,Longbenton,,,NE12 8LT,55.0116233826,-1.5864707232,0191 251 7139,,,0191 251 8936
3538,A87015,GP,Visible,True,False,Dr Bates & Partner,"Appleby Surgery, Hawkeys Lane",North Shields,Tyne and Wear,,,NE29 0SF,55.0112228394,-1.456580162,0191 296 1770,a.a87015@nhs.net,http://www.applebysurgery.nhs.uk,0191 2982199
3539,A87016,GP,Visible,True,True,The Village Green Surgery,The Green,,Wallsend,Tyne and Wear,,NE28 6BB,54.996471405,-1.5292294025,0191 295 8500,,http://www.villagegreensurgery-wallsend.nhs.uk,0191 295 8519
3540,A87017,GP,Visible,True,True,"Woodlands Park Health Centre, Dinnington","Dinnington Surgery, Dinnington Library",Main Road,Dinnington,Newcastle Upon Tyne,Tyne and Wear,NE13 7JW,55.0513114929,-1.6733237505,0191 236 2366,wphc@nhs.net,http://www.wphc.org.uk,0191 236 7619
3541,A87017,GP,Visible,True,True,"Woodlands Park Health Centre, Wideopen",Woodlands Park Health Centre,"Canterbury Way, Wideopen",Newcastle Upon Tyne,Tyne and Wear,,NE13 6JJ,55.045375824,-1.6292382479,0191 236 2366,wphc@nhs.net,http://www.wphc.org.uk,0191 236 7619
3542,A87019,GP,Visible,True,True,Nelson Health Group,Cecil Street,,North Shields,Tyne and Wear,,NE29 0DZ,55.0092124939,-1.451212883,0191 257 1204,,,0191 258 7191
3543,A87020,GP,Visible,True,True,Dr Ferriman & Partners,"Monkseaton Medical Centre, Caudwell Avenue",Whitley Bay,Tyne and Wear,,,NE25 9PH,55.0367240906,-1.4728521109,0191 252 1616,,www.monkseatonmedical.co.uk,0191 252 2151
3544,A87022,GP,Visible,True,True,Northumberland Park Medical Group,Shiremoor Resource Centre,Earsdon Road,Shiremoor,Newcastle Upon Tyne,,NE27 0HJ,55.0381240845,-1.5061467886,0191 253 7892,,www.northumberlandparkmedicalgroup.nhs.uk,0191 251 5035
3545,A87023,GP,Visible,True,True,Dr D Smith & Partners,Shiremoor Resource Centre,Earsdon Road,Shiremoor,Newcastle Upon Tyne,,NE27 0HJ,55.0381240845,-1.5061467886,0191 253 2578,,www.drsmithandpartners.com,0191 251 9590
3546,A87027,GP,Visible,True,True,Dr Abraham & Partners,Denbigh Avenue,Howdon,Wallsend,Tyne and Wear,,NE28 0PP,55.0011711121,-1.497689724,0191 289 2525,,http://www.nnt.nhs.uk/gardenpark/,0191 289 2526
3547,A87027,GP,Visible,True,True,Dr Abraham & Partners,Citadel East,,Killingworth,Newcastle Upon Tyne,,NE12 6SS,55.0355072021,-1.5650399923,0191 268 8966,,http://www.nnt.nhs.uk/whiteswan/,0191 268 8333
3548,A87029,GP,Visible,True,False,Park Road Medical Practice,93 Park Road,,Wallsend,Tyne & Wear,Tyne and Wear,NE28 7LP,54.9927635193,-1.5318048,0191 262 5680,,http://www.parkroadpracticewallsend.nhs.uk/,0191 262 3646
3549,A87030,GP,Visible,True,True,Redburn Park Medical Centre,15 Station Road  ,Percy Main,North Shields,Tyne and Wear,,NE29 6HT,55.000869751,-1.4748071432,0191 296 1456,,http://www.redburnpark.co.uk/,0191 257 3127
3550,A87600,GP,Visible,True,True,Dr Smith & Partners,69 Park Parade,,Whitley Bay,Tyne and Wear,,NE26 1DU,55.0427284241,-1.4505046606,0191 252 3135,,http://www.parkparadesurgery-whitleybay.nhs.uk,0191 253 3566
3551,A87612,GP,Visible,True,True,Dr Findlay & Partners,Killingworth Health Centre,Citadel East,Killingworth,Newcastle Upon Tyne,,NE12 6HS,55.0371856689,-1.5643333197,0191 216 4920,,,0191 216 4928
3552,A87615,GP,Visible,True,True,Dr Preston & Dr Austin.,Citadel East,,Killingworth,Newcastle Upon Tyne,,NE12 6HS,55.0371856689,-1.5643333197,0191 216 0061,enquiries.prestonandaustin@nhs.net,http://www.drsprestonandaustin.co.uk,0191 268 5360
3553,A88001,GP,Visible,True,False,Dr Vinayak & Partners,Victoria Medical Centre,12-28 Glen Street,Hebburn,Hebburn,Tyne and Wear,NE31 1NU,54.9738273621,-1.5218548775,0191 483 2106,,,0191 428 5270
3554,A88001,GP,Visible,True,False,Drs Vinayak & Partners,158 Calf Close Lane,,Jarrow,Jarrow,,NE32 4DU,54.9591178894,-1.478834033,0191 428 0448,,,
